time,.header.seq,.header.stamp.secs,.header.stamp.nsecs,.header.frame_id,.status.status,.status.service,.latitude,.longitude,.altitude,.position_covariance,.position_covariance_type
2019/07/11/08:54:51.063089,1,1562828091,62896013,map,0,1,47.0591308333,15.458615,403.3,"(0.45495025, 0.0, 0.0, 0.0, 0.9880359999999998, 0.0, 0.0, 0.0, 129.0496)",1
2019/07/11/08:54:52.061798,2,1562828092,61661958,map,0,1,47.0591301667,15.4586145,403.5,"(0.46457856, 0.0, 0.0, 0.0, 0.9880359999999998, 0.0, 0.0, 0.0, 129.0496)",1
2019/07/11/08:54:53.062617,3,1562828093,62483072,map,0,1,47.0591295,15.458614,403.7,"(0.46457856, 0.0, 0.0, 0.0, 0.9880359999999998, 0.0, 0.0, 0.0, 129.0496)",1
2019/07/11/08:54:54.060820,4,1562828094,60543060,map,0,1,47.0591288333,15.4586135,403.9,"(0.46457856, 0.0, 0.0, 0.0, 0.9880359999999998, 0.0, 0.0, 0.0, 129.0496)",1
2019/07/11/08:54:55.064253,5,1562828095,63816070,map,0,1,47.059128,15.458613,404.1,"(0.46457856, 0.0, 0.0, 0.0, 0.9880359999999998, 0.0, 0.0, 0.0, 129.0496)",1
2019/07/11/08:54:56.063433,6,1562828096,63138008,map,0,1,47.0591271667,15.4586125,404.3,"(0.47430768999999995, 0.0, 0.0, 0.0, 0.9880359999999998, 0.0, 0.0, 0.0, 129.0496)",1
2019/07/11/08:54:57.064290,7,1562828097,64074993,map,0,1,47.0591266667,15.4586121667,404.4,"(0.4479624899999999, 0.0, 0.0, 0.0, 1.0712249999999999, 0.0, 0.0, 0.0, 121.88159999999998)",1
2019/07/11/08:54:58.063564,8,1562828098,63431024,map,0,1,47.0591258333,15.4586116667,404.6,"(0.45724643999999987, 0.0, 0.0, 0.0, 1.0712249999999999, 0.0, 0.0, 0.0, 121.88159999999998)",1
2019/07/11/08:54:59.060820,9,1562828099,60666084,map,0,1,47.059125,15.4586106667,404.8,"(0.4760999999999999, 0.0, 0.0, 0.0, 1.0712249999999999, 0.0, 0.0, 0.0, 121.88159999999998)",1
2019/07/11/08:55:00.064183,10,1562828100,64032077,map,0,1,47.0591243333,15.4586096667,405.0,"(0.4666256099999999, 0.0, 0.0, 0.0, 1.0712249999999999, 0.0, 0.0, 0.0, 121.88159999999998)",1
2019/07/11/08:55:01.063361,11,1562828101,63235998,map,0,1,47.0591235,15.4586085,405.2,"(0.4666256099999999, 0.0, 0.0, 0.0, 1.0712249999999999, 0.0, 0.0, 0.0, 121.88159999999998)",1
2019/07/11/08:55:02.063874,12,1562828102,63736915,map,0,1,47.0591226667,15.4586076667,405.4,"(0.45724643999999987, 0.0, 0.0, 0.0, 1.0712249999999999, 0.0, 0.0, 0.0, 121.88159999999998)",1
2019/07/11/08:55:03.064376,13,1562828103,64232110,map,0,1,47.0591213333,15.4586066667,405.6,"(0.45724643999999987, 0.0, 0.0, 0.0, 1.0712249999999999, 0.0, 0.0, 0.0, 121.88159999999998)",1
2019/07/11/08:55:04.063543,14,1562828104,63425064,map,0,1,47.0591201667,15.4586056667,405.8,"(0.45724643999999987, 0.0, 0.0, 0.0, 1.0712249999999999, 0.0, 0.0, 0.0, 121.88159999999998)",1
2019/07/11/08:55:05.063268,15,1562828105,63150882,map,0,1,47.0591191667,15.4586048333,405.9,"(0.45724643999999987, 0.0, 0.0, 0.0, 1.0712249999999999, 0.0, 0.0, 0.0, 121.88159999999998)",1
2019/07/11/08:55:06.063475,16,1562828106,63308954,map,0,1,47.0591181667,15.458604,406.0,"(0.4479624899999999, 0.0, 0.0, 0.0, 1.0712249999999999, 0.0, 0.0, 0.0, 121.88159999999998)",1
2019/07/11/08:55:07.064763,17,1562828107,64619064,map,0,1,47.059117,15.458603,406.2,"(0.4479624899999999, 0.0, 0.0, 0.0, 1.0712249999999999, 0.0, 0.0, 0.0, 121.88159999999998)",1
2019/07/11/08:55:08.063101,18,1562828108,62912940,map,0,1,47.0591161667,15.4586023333,406.4,"(0.43877375999999985, 0.0, 0.0, 0.0, 1.0712249999999999, 0.0, 0.0, 0.0, 121.88159999999998)",1
2019/07/11/08:55:09.064072,19,1562828109,63925981,map,0,1,47.0591155,15.458602,406.5,"(0.43877375999999985, 0.0, 0.0, 0.0, 1.0712249999999999, 0.0, 0.0, 0.0, 121.88159999999998)",1
2019/07/11/08:55:10.060785,20,1562828110,60600996,map,0,1,47.0591148333,15.4586018333,406.6,"(0.42968025, 0.0, 0.0, 0.0, 1.0712249999999999, 0.0, 0.0, 0.0, 121.88159999999998)",1
2019/07/11/08:55:11.063965,21,1562828111,63812971,map,0,1,47.0591141667,15.4586016667,406.8,"(0.42968025, 0.0, 0.0, 0.0, 1.0712249999999999, 0.0, 0.0, 0.0, 121.88159999999998)",1
2019/07/11/08:55:12.062317,22,1562828112,62118053,map,0,1,47.059114,15.4586016667,407.1,"(0.42968025, 0.0, 0.0, 0.0, 1.0712249999999999, 0.0, 0.0, 0.0, 121.88159999999998)",1
2019/07/11/08:55:13.065538,23,1562828113,65340042,map,0,1,47.0591135,15.4586015,407.3,"(0.43877375999999985, 0.0, 0.0, 0.0, 1.0712249999999999, 0.0, 0.0, 0.0, 121.88159999999998)",1
2019/07/11/08:55:14.063655,24,1562828114,63535928,map,0,1,47.0591133333,15.4586018333,407.6,"(0.43877375999999985, 0.0, 0.0, 0.0, 1.0712249999999999, 0.0, 0.0, 0.0, 121.88159999999998)",1
2019/07/11/08:55:15.063888,25,1562828115,63766956,map,0,1,47.059113,15.4586018333,407.8,"(0.42968025, 0.0, 0.0, 0.0, 1.0712249999999999, 0.0, 0.0, 0.0, 121.88159999999998)",1
2019/07/11/08:55:16.064341,26,1562828116,64198017,map,0,1,47.0591128333,15.458602,408.1,"(0.42968025, 0.0, 0.0, 0.0, 1.0712249999999999, 0.0, 0.0, 0.0, 121.88159999999998)",1
2019/07/11/08:55:17.061653,27,1562828117,61150074,map,0,1,47.0591126667,15.4586021667,408.4,"(0.42968025, 0.0, 0.0, 0.0, 1.0712249999999999, 0.0, 0.0, 0.0, 121.88159999999998)",1
2019/07/11/08:55:18.063225,28,1562828118,63087940,map,0,1,47.0591125,15.4586021667,408.6,"(0.42968025, 0.0, 0.0, 0.0, 1.0712249999999999, 0.0, 0.0, 0.0, 121.88159999999998)",1
2019/07/11/08:55:19.064754,29,1562828119,64527988,map,0,1,47.0591123333,15.4586026667,408.9,"(0.42968025, 0.0, 0.0, 0.0, 1.0712249999999999, 0.0, 0.0, 0.0, 121.88159999999998)",1
2019/07/11/08:55:20.063564,30,1562828120,63396930,map,0,1,47.059112,15.4586028333,409.1,"(0.42968025, 0.0, 0.0, 0.0, 1.0712249999999999, 0.0, 0.0, 0.0, 121.88159999999998)",1
2019/07/11/08:55:21.060436,31,1562828121,60282945,map,0,1,47.059112,15.458603,409.3,"(0.42968025, 0.0, 0.0, 0.0, 1.0712249999999999, 0.0, 0.0, 0.0, 121.88159999999998)",1
2019/07/11/08:55:22.065057,32,1562828122,64678907,map,0,1,47.0591118333,15.4586033333,409.3,"(0.42968025, 0.0, 0.0, 0.0, 1.0712249999999999, 0.0, 0.0, 0.0, 121.88159999999998)",1
2019/07/11/08:55:23.063869,33,1562828123,63719034,map,0,1,47.0591115,15.4586033333,409.4,"(0.4051322499999999, 0.0, 0.0, 0.0, 1.0100250000000002, 0.0, 0.0, 0.0, 114.91840000000002)",1
2019/07/11/08:55:24.064148,34,1562828124,63805103,map,0,1,47.0591111667,15.4586035,409.4,"(0.42968025, 0.0, 0.0, 0.0, 1.0712249999999999, 0.0, 0.0, 0.0, 121.88159999999998)",1
2019/07/11/08:55:25.064094,35,1562828125,63976049,map,0,1,47.0591111667,15.4586035,409.4,"(0.42068195999999997, 0.0, 0.0, 0.0, 1.0712249999999999, 0.0, 0.0, 0.0, 121.88159999999998)",1
2019/07/11/08:55:26.062593,36,1562828126,62472105,map,0,1,47.0591106667,15.4586031667,409.5,"(0.42068195999999997, 0.0, 0.0, 0.0, 1.0712249999999999, 0.0, 0.0, 0.0, 121.88159999999998)",1
2019/07/11/08:55:27.063292,37,1562828127,63158988,map,0,1,47.0591101667,15.4586028333,409.6,"(0.42068195999999997, 0.0, 0.0, 0.0, 1.0712249999999999, 0.0, 0.0, 0.0, 121.88159999999998)",1
2019/07/11/08:55:28.060568,38,1562828128,60337066,map,0,1,47.0591095,15.4586025,409.6,"(0.42068195999999997, 0.0, 0.0, 0.0, 1.0712249999999999, 0.0, 0.0, 0.0, 121.88159999999998)",1
2019/07/11/08:55:29.061623,39,1562828129,61499118,map,0,1,47.0591098333,15.4586026667,409.6,"(0.42068195999999997, 0.0, 0.0, 0.0, 1.0712249999999999, 0.0, 0.0, 0.0, 121.88159999999998)",1
2019/07/11/08:55:30.063054,40,1562828130,62922000,map,0,1,47.05911,15.458603,409.5,"(0.4117788899999999, 0.0, 0.0, 0.0, 1.0712249999999999, 0.0, 0.0, 0.0, 121.88159999999998)",1
2019/07/11/08:55:31.063566,41,1562828131,63417911,map,0,1,47.0591101667,15.4586033333,409.4,"(0.4117788899999999, 0.0, 0.0, 0.0, 0.9331559999999998, 0.0, 0.0, 0.0, 121.88159999999998)",1
2019/07/11/08:55:32.064465,42,1562828132,64318895,map,0,1,47.059111,15.4586046667,409.3,"(0.42068195999999997, 0.0, 0.0, 0.0, 0.9331559999999998, 0.0, 0.0, 0.0, 121.88159999999998)",1
2019/07/11/08:55:33.063247,43,1562828133,62999963,map,0,1,47.0591115,15.4586058333,409.1,"(0.4117788899999999, 0.0, 0.0, 0.0, 0.9331559999999998, 0.0, 0.0, 0.0, 121.88159999999998)",1
2019/07/11/08:55:34.063881,44,1562828134,63716888,map,0,1,47.0591115,15.4586063333,409.0,"(0.40297104000000006, 0.0, 0.0, 0.0, 0.9331559999999998, 0.0, 0.0, 0.0, 121.88159999999998)",1
2019/07/11/08:55:35.063202,45,1562828135,63043117,map,0,1,47.0591116667,15.4586073333,408.9,"(0.40297104000000006, 0.0, 0.0, 0.0, 0.8046089999999998, 0.0, 0.0, 0.0, 121.88159999999998)",1
2019/07/11/08:55:36.063209,46,1562828136,63071966,map,0,1,47.0591111667,15.4586076667,408.8,"(0.40297104000000006, 0.0, 0.0, 0.0, 0.8046089999999998, 0.0, 0.0, 0.0, 121.88159999999998)",1
2019/07/11/08:55:37.062562,47,1562828137,62413930,map,0,1,47.0591106667,15.4586073333,408.7,"(0.43599609, 0.0, 0.0, 0.0, 0.725904, 0.0, 0.0, 0.0, 129.0496)",1
2019/07/11/08:55:38.062733,48,1562828138,62447071,map,0,1,47.0591103333,15.4586073333,408.7,"(0.44542275999999986, 0.0, 0.0, 0.0, 0.725904, 0.0, 0.0, 0.0, 129.0496)",1
2019/07/11/08:55:39.059237,49,1562828139,59041976,map,0,1,47.0591093333,15.4586068333,408.7,"(0.43877375999999985, 0.0, 0.0, 0.0, 0.685584, 0.0, 0.0, 0.0, 121.88159999999998)",1
2019/07/11/08:55:40.063476,50,1562828140,63215017,map,0,1,47.0591088333,15.4586068333,408.7,"(0.43877375999999985, 0.0, 0.0, 0.0, 0.685584, 0.0, 0.0, 0.0, 121.88159999999998)",1
2019/07/11/08:55:41.063430,51,1562828141,63273906,map,0,1,47.0591086667,15.458607,408.7,"(0.43877375999999985, 0.0, 0.0, 0.0, 0.685584, 0.0, 0.0, 0.0, 121.88159999999998)",1
2019/07/11/08:55:42.061927,52,1562828142,61709880,map,0,1,47.0591081667,15.4586073333,408.6,"(0.5292562500000001, 0.0, 0.0, 0.0, 0.8099999999999998, 0.0, 0.0, 0.0, 144.0)",1
2019/07/11/08:55:43.063908,53,1562828143,63601016,map,0,1,47.0591075,15.458607,408.5,"(0.45724643999999987, 0.0, 0.0, 0.0, 0.685584, 0.0, 0.0, 0.0, 121.88159999999998)",1
2019/07/11/08:55:44.062847,54,1562828144,62695980,map,0,1,47.0591065,15.4586021667,408.2,"(0.540225, 0.0, 0.0, 0.0, 0.8099999999999998, 0.0, 0.0, 0.0, 144.0)",1
2019/07/11/08:55:45.063783,55,1562828145,63637018,map,0,1,47.0591045,15.458599,408.1,"(0.5292562500000001, 0.0, 0.0, 0.0, 0.8099999999999998, 0.0, 0.0, 0.0, 144.0)",1
2019/07/11/08:55:46.061120,56,1562828146,60951948,map,0,1,47.0591041667,15.4585946667,408.0,"(0.5578596100000001, 0.0, 0.0, 0.0, 0.7174090000000002, 0.0, 0.0, 0.0, 151.7824)",1
2019/07/11/08:55:47.062574,57,1562828147,62366962,map,0,1,47.0591041667,15.4585891667,407.9,"(0.47430768999999995, 0.0, 0.0, 0.0, 0.6099610000000001, 0.0, 0.0, 0.0, 129.0496)",1
2019/07/11/08:55:48.063508,58,1562828148,63286066,map,0,1,47.0591041667,15.4585843333,407.8,"(0.43877375999999985, 0.0, 0.0, 0.0, 0.5760810000000001, 0.0, 0.0, 0.0, 121.88159999999998)",1
2019/07/11/08:55:49.063341,59,1562828149,63143014,map,0,1,47.0591036667,15.458582,407.7,"(0.42968025, 0.0, 0.0, 0.0, 0.5760810000000001, 0.0, 0.0, 0.0, 121.88159999999998)",1
2019/07/11/08:55:50.059247,60,1562828150,59123039,map,0,1,47.059103,15.4585806667,407.7,"(0.42068195999999997, 0.0, 0.0, 0.0, 0.5760810000000001, 0.0, 0.0, 0.0, 121.88159999999998)",1
2019/07/11/08:55:51.062674,61,1562828151,62539100,map,0,1,47.059102,15.4585795,407.8,"(0.4117788899999999, 0.0, 0.0, 0.0, 0.5760810000000001, 0.0, 0.0, 0.0, 121.88159999999998)",1
2019/07/11/08:55:52.062930,62,1562828152,62700986,map,0,1,47.0591011667,15.4585785,407.9,"(0.40297104000000006, 0.0, 0.0, 0.0, 0.4760999999999999, 0.0, 0.0, 0.0, 121.88159999999998)",1
2019/07/11/08:55:53.063316,63,1562828153,63173055,map,0,1,47.0591003333,15.4585775,408.0,"(0.39425841, 0.0, 0.0, 0.0, 0.4760999999999999, 0.0, 0.0, 0.0, 121.88159999999998)",1
2019/07/11/08:55:54.064278,64,1562828154,64076900,map,0,1,47.0590991667,15.4585765,408.0,"(0.385641, 0.0, 0.0, 0.0, 0.4760999999999999, 0.0, 0.0, 0.0, 121.88159999999998)",1
2019/07/11/08:55:55.063269,65,1562828155,62999963,map,0,1,47.059098,15.4585756667,408.1,"(0.385641, 0.0, 0.0, 0.0, 0.4760999999999999, 0.0, 0.0, 0.0, 121.88159999999998)",1
2019/07/11/08:55:56.062872,66,1562828156,62695980,map,0,1,47.059097,15.4585746667,408.2,"(0.35557369000000005, 0.0, 0.0, 0.0, 0.4489000000000001, 0.0, 0.0, 0.0, 114.91840000000002)",1
2019/07/11/08:55:57.058382,67,1562828157,58257102,map,0,1,47.0590958333,15.4585738333,408.4,"(0.37711880999999997, 0.0, 0.0, 0.0, 0.4760999999999999, 0.0, 0.0, 0.0, 121.88159999999998)",1
2019/07/11/08:55:58.063920,68,1562828158,63760995,map,0,1,47.0590953333,15.4585688333,408.5,"(0.37711880999999997, 0.0, 0.0, 0.0, 0.4666256099999999, 0.0, 0.0, 0.0, 121.88159999999998)",1
2019/07/11/08:55:59.062603,69,1562828159,62396049,map,0,1,47.059095,15.4585621667,408.6,"(0.36869183999999994, 0.0, 0.0, 0.0, 0.45724643999999987, 0.0, 0.0, 0.0, 121.88159999999998)",1
2019/07/11/08:56:00.064302,70,1562828160,63998937,map,0,1,47.059095,15.4585556667,408.7,"(0.36869183999999994, 0.0, 0.0, 0.0, 0.45724643999999987, 0.0, 0.0, 0.0, 121.88159999999998)",1
2019/07/11/08:56:01.063594,71,1562828161,63332080,map,0,1,47.059096,15.4585446667,408.6,"(0.3603600899999999, 0.0, 0.0, 0.0, 0.4479624899999999, 0.0, 0.0, 0.0, 121.88159999999998)",1
2019/07/11/08:56:02.063684,72,1562828162,63536882,map,0,1,47.059097,15.4585321667,408.8,"(0.3521235599999999, 0.0, 0.0, 0.0, 0.42968025, 0.0, 0.0, 0.0, 121.88159999999998)",1
2019/07/11/08:56:03.063178,73,1562828163,63021898,map,0,1,47.0590983333,15.4585201667,408.8,"(0.3728323599999999, 0.0, 0.0, 0.0, 0.44542275999999986, 0.0, 0.0, 0.0, 129.0496)",1
2019/07/11/08:56:04.062730,74,1562828164,62581062,map,0,1,47.0590993333,15.458508,408.6,"(0.3642122499999999, 0.0, 0.0, 0.0, 0.44542275999999986, 0.0, 0.0, 0.0, 129.0496)",1
2019/07/11/08:56:05.065044,75,1562828165,64750909,map,0,1,47.0591,15.4584975,408.6,"(0.3728323599999999, 0.0, 0.0, 0.0, 0.44542275999999986, 0.0, 0.0, 0.0, 129.0496)",1
2019/07/11/08:56:06.061970,76,1562828166,61695098,map,0,1,47.0590995,15.4584868333,408.5,"(0.3728323599999999, 0.0, 0.0, 0.0, 0.44542275999999986, 0.0, 0.0, 0.0, 129.0496)",1
2019/07/11/08:56:07.063324,77,1562828167,63150882,map,0,1,47.0590983333,15.4584771667,408.6,"(0.3521235599999999, 0.0, 0.0, 0.0, 0.42968025, 0.0, 0.0, 0.0, 121.88159999999998)",1
2019/07/11/08:56:08.059605,78,1562828168,59483051,map,0,1,47.0590986667,15.4584665,408.7,"(0.3728323599999999, 0.0, 0.0, 0.0, 0.45495025, 0.0, 0.0, 0.0, 129.0496)",1
2019/07/11/08:56:09.064987,79,1562828169,64748048,map,0,1,47.0590998333,15.458455,408.7,"(0.3642122499999999, 0.0, 0.0, 0.0, 0.45495025, 0.0, 0.0, 0.0, 129.0496)",1
2019/07/11/08:56:10.063591,80,1562828170,63363075,map,0,1,47.0591015,15.4584436667,408.6,"(0.3556929599999999, 0.0, 0.0, 0.0, 0.46457856, 0.0, 0.0, 0.0, 129.0496)",1
2019/07/11/08:56:11.063477,81,1562828171,63241004,map,0,1,47.0591035,15.4584316667,408.4,"(0.34727448999999994, 0.0, 0.0, 0.0, 0.46457856, 0.0, 0.0, 0.0, 129.0496)",1
2019/07/11/08:56:12.062960,82,1562828172,62797069,map,0,1,47.0591036667,15.458426,408.3,"(0.3389568399999999, 0.0, 0.0, 0.0, 0.45495025, 0.0, 0.0, 0.0, 129.0496)",1
2019/07/11/08:56:13.063289,83,1562828173,63083887,map,0,1,47.0591066667,15.4584183333,408.2,"(0.3389568399999999, 0.0, 0.0, 0.0, 0.45495025, 0.0, 0.0, 0.0, 129.0496)",1
2019/07/11/08:56:14.061696,84,1562828174,61506032,map,0,1,47.0591085,15.4584153333,408.0,"(0.34727448999999994, 0.0, 0.0, 0.0, 0.45495025, 0.0, 0.0, 0.0, 129.0496)",1
2019/07/11/08:56:15.061659,85,1562828175,61531066,map,0,1,47.0591095,15.458415,407.9,"(0.3389568399999999, 0.0, 0.0, 0.0, 0.44542275999999986, 0.0, 0.0, 0.0, 129.0496)",1
2019/07/11/08:56:16.060597,86,1562828176,60415029,map,0,1,47.0591133333,15.4584093333,407.7,"(0.39866595999999993, 0.0, 0.0, 0.0, 0.52388644, 0.0, 0.0, 0.0, 151.7824)",1
2019/07/11/08:56:17.061771,87,1562828177,61625003,map,0,1,47.0591196667,15.4584031667,407.5,"(0.3389568399999999, 0.0, 0.0, 0.0, 0.44542275999999986, 0.0, 0.0, 0.0, 129.0496)",1
2019/07/11/08:56:18.061968,88,1562828178,61821937,map,0,1,47.0591265,15.4583985,407.4,"(0.3307400100000001, 0.0, 0.0, 0.0, 0.45495025, 0.0, 0.0, 0.0, 129.0496)",1
2019/07/11/08:56:19.058856,89,1562828179,58731079,map,0,1,47.0591346667,15.4583955,407.2,"(0.38900169000000007, 0.0, 0.0, 0.0, 0.5578596100000001, 0.0, 0.0, 0.0, 151.7824)",1
2019/07/11/08:56:20.063555,90,1562828180,63411951,map,0,1,47.0591423333,15.4583923333,407.1,"(0.31236920999999995, 0.0, 0.0, 0.0, 0.45724643999999987, 0.0, 0.0, 0.0, 121.88159999999998)",1
2019/07/11/08:56:21.063554,91,1562828181,63410043,map,0,1,47.0591486667,15.4583921667,407.1,"(0.31236920999999995, 0.0, 0.0, 0.0, 0.45724643999999987, 0.0, 0.0, 0.0, 121.88159999999998)",1
2019/07/11/08:56:22.063640,92,1562828182,63498020,map,0,1,47.0591506667,15.4583925,407.1,"(0.32012964, 0.0, 0.0, 0.0, 0.45724643999999987, 0.0, 0.0, 0.0, 121.88159999999998)",1
2019/07/11/08:56:23.064024,93,1562828183,63848972,map,0,1,47.0591538333,15.4583931667,407.1,"(0.31236920999999995, 0.0, 0.0, 0.0, 0.45724643999999987, 0.0, 0.0, 0.0, 121.88159999999998)",1
2019/07/11/08:56:24.060513,94,1562828184,60396909,map,0,1,47.0591555,15.4583936667,407.2,"(0.38900169000000007, 0.0, 0.0, 0.0, 0.5694211600000001, 0.0, 0.0, 0.0, 151.7824)",1
2019/07/11/08:56:25.064528,95,1562828185,64408063,map,0,1,47.0591571667,15.4583945,407.2,"(0.3307400100000001, 0.0, 0.0, 0.0, 0.49406840999999996, 0.0, 0.0, 0.0, 129.0496)",1
2019/07/11/08:56:26.059520,96,1562828186,59382915,map,0,1,47.0591583333,15.458395,407.2,"(0.3389568399999999, 0.0, 0.0, 0.0, 0.5041, 0.0, 0.0, 0.0, 129.0496)",1
2019/07/11/08:56:27.064165,97,1562828187,63829898,map,0,1,47.0591605,15.4583935,407.1,"(0.34727448999999994, 0.0, 0.0, 0.0, 0.5041, 0.0, 0.0, 0.0, 129.0496)",1
2019/07/11/08:56:28.062812,98,1562828188,62665939,map,0,1,47.0591623333,15.4583933333,407.1,"(0.34727448999999994, 0.0, 0.0, 0.0, 0.5041, 0.0, 0.0, 0.0, 129.0496)",1
2019/07/11/08:56:29.062762,99,1562828189,62604904,map,0,1,47.0591636667,15.458393,407.0,"(0.3359361599999999, 0.0, 0.0, 0.0, 0.4760999999999999, 0.0, 0.0, 0.0, 121.88159999999998)",1
2019/07/11/08:56:30.059385,100,1562828190,59247016,map,0,1,47.0591646667,15.4583928333,406.8,"(0.3359361599999999, 0.0, 0.0, 0.0, 0.4760999999999999, 0.0, 0.0, 0.0, 121.88159999999998)",1
2019/07/11/08:56:31.065608,101,1562828191,65414905,map,0,1,47.0591655,15.4583926667,406.6,"(0.3279852899999999, 0.0, 0.0, 0.0, 0.4666256099999999, 0.0, 0.0, 0.0, 121.88159999999998)",1
2019/07/11/08:56:32.063389,102,1562828192,63271045,map,0,1,47.0591661667,15.4583923333,406.5,"(0.3279852899999999, 0.0, 0.0, 0.0, 0.45724643999999987, 0.0, 0.0, 0.0, 121.88159999999998)",1
2019/07/11/08:56:33.063204,103,1562828193,63092947,map,0,1,47.0591665,15.4583921667,406.3,"(0.3279852899999999, 0.0, 0.0, 0.0, 0.45724643999999987, 0.0, 0.0, 0.0, 121.88159999999998)",1
2019/07/11/08:56:34.064243,104,1562828194,63988924,map,0,1,47.0591668333,15.4583921667,406.2,"(0.3279852899999999, 0.0, 0.0, 0.0, 0.45724643999999987, 0.0, 0.0, 0.0, 121.88159999999998)",1
2019/07/11/08:56:35.062747,105,1562828195,62505960,map,0,1,47.059167,15.4583921667,406.1,"(0.3279852899999999, 0.0, 0.0, 0.0, 0.4479624899999999, 0.0, 0.0, 0.0, 121.88159999999998)",1
2019/07/11/08:56:36.063303,106,1562828196,63193082,map,0,1,47.0591673333,15.4583921667,405.9,"(0.3279852899999999, 0.0, 0.0, 0.0, 0.43877375999999985, 0.0, 0.0, 0.0, 121.88159999999998)",1
2019/07/11/08:56:37.060624,107,1562828197,60503959,map,0,1,47.0591675,15.458392,405.7,"(0.3279852899999999, 0.0, 0.0, 0.0, 0.43877375999999985, 0.0, 0.0, 0.0, 121.88159999999998)",1
2019/07/11/08:56:38.062835,108,1562828198,62711000,map,0,1,47.0591678333,15.4583918333,405.6,"(0.3279852899999999, 0.0, 0.0, 0.0, 0.42968025, 0.0, 0.0, 0.0, 121.88159999999998)",1
2019/07/11/08:56:39.062814,109,1562828199,62695026,map,0,1,47.059168,15.458392,405.4,"(0.3279852899999999, 0.0, 0.0, 0.0, 0.42068195999999997, 0.0, 0.0, 0.0, 121.88159999999998)",1
2019/07/11/08:56:40.063216,110,1562828200,63095092,map,0,1,47.0591683333,15.4583921667,405.2,"(0.3279852899999999, 0.0, 0.0, 0.0, 0.42068195999999997, 0.0, 0.0, 0.0, 121.88159999999998)",1
2019/07/11/08:56:41.063428,111,1562828201,63123941,map,0,1,47.0591685,15.4583923333,405.1,"(0.3279852899999999, 0.0, 0.0, 0.0, 0.42068195999999997, 0.0, 0.0, 0.0, 121.88159999999998)",1
2019/07/11/08:56:42.061592,112,1562828202,61044931,map,0,1,47.059169,15.4583925,405.0,"(0.3279852899999999, 0.0, 0.0, 0.0, 0.42068195999999997, 0.0, 0.0, 0.0, 121.88159999999998)",1
2019/07/11/08:56:43.062883,113,1562828203,62678098,map,0,1,47.0591695,15.4583926667,404.9,"(0.32012964, 0.0, 0.0, 0.0, 0.4117788899999999, 0.0, 0.0, 0.0, 121.88159999999998)",1
2019/07/11/08:56:44.062583,114,1562828204,62449932,map,0,1,47.05917,15.4583928333,404.8,"(0.31236920999999995, 0.0, 0.0, 0.0, 0.40297104000000006, 0.0, 0.0, 0.0, 121.88159999999998)",1
2019/07/11/08:56:45.061847,115,1562828205,61485052,map,0,1,47.0591756667,15.4583943333,404.6,"(0.3047039999999999, 0.0, 0.0, 0.0, 0.39425841, 0.0, 0.0, 0.0, 121.88159999999998)",1
2019/07/11/08:56:46.060830,116,1562828206,60667991,map,0,1,47.0591833333,15.4583951667,404.6,"(0.35105625, 0.0, 0.0, 0.0, 0.46580625, 0.0, 0.0, 0.0, 144.0)",1
2019/07/11/08:56:47.060771,117,1562828207,60573101,map,0,1,47.0591886667,15.4583971667,404.5,"(0.28227968999999997, 0.0, 0.0, 0.0, 0.385641, 0.0, 0.0, 0.0, 121.88159999999998)",1
2019/07/11/08:56:48.058595,118,1562828208,58383941,map,0,1,47.0591905,15.4583975,404.5,"(0.27499535999999997, 0.0, 0.0, 0.0, 0.385641, 0.0, 0.0, 0.0, 121.88159999999998)",1
2019/07/11/08:56:49.061850,119,1562828209,61726093,map,0,1,47.0591915,15.4583978333,404.5,"(0.27604515999999996, 0.0, 0.0, 0.0, 0.39037504, 0.0, 0.0, 0.0, 129.0496)",1
2019/07/11/08:56:50.063254,120,1562828210,63025951,map,0,1,47.0591961667,15.4584006667,404.4,"(0.23921881000000003, 0.0, 0.0, 0.0, 0.3397724100000001, 0.0, 0.0, 0.0, 114.91840000000002)",1
2019/07/11/08:56:51.063095,121,1562828211,62937021,map,0,1,47.059198,15.4584018333,404.3,"(0.24681023999999996, 0.0, 0.0, 0.0, 0.3603600899999999, 0.0, 0.0, 0.0, 121.88159999999998)",1
2019/07/11/08:56:52.060843,122,1562828212,60626029,map,0,1,47.0591995,15.4584035,404.2,"(0.24000200999999996, 0.0, 0.0, 0.0, 0.3603600899999999, 0.0, 0.0, 0.0, 121.88159999999998)",1
2019/07/11/08:56:53.063061,123,1562828213,62925100,map,0,1,47.0592045,15.4584063333,404.1,"(0.24000200999999996, 0.0, 0.0, 0.0, 0.3603600899999999, 0.0, 0.0, 0.0, 121.88159999999998)",1
2019/07/11/08:56:54.060693,124,1562828214,60553073,map,0,1,47.0592065,15.4584075,404.1,"(0.25411680999999997, 0.0, 0.0, 0.0, 0.39037504, 0.0, 0.0, 0.0, 129.0496)",1
2019/07/11/08:56:55.062534,125,1562828215,62418937,map,0,1,47.0592065,15.458408,404.1,"(0.25411680999999997, 0.0, 0.0, 0.0, 0.39037504, 0.0, 0.0, 0.0, 129.0496)",1
2019/07/11/08:56:56.060673,126,1562828216,60487985,map,0,1,47.0592065,15.4584085,404.0,"(0.26132543999999996, 0.0, 0.0, 0.0, 0.39037504, 0.0, 0.0, 0.0, 129.0496)",1
2019/07/11/08:56:57.060754,127,1562828217,60628890,map,0,1,47.0592065,15.4584091667,403.9,"(0.26132543999999996, 0.0, 0.0, 0.0, 0.39929761, 0.0, 0.0, 0.0, 129.0496)",1
2019/07/11/08:56:58.060887,128,1562828218,60695886,map,0,1,47.059209,15.4584105,403.8,"(0.26132543999999996, 0.0, 0.0, 0.0, 0.408321, 0.0, 0.0, 0.0, 129.0496)",1
2019/07/11/08:56:59.057783,129,1562828219,57569026,map,0,1,47.059211,15.4584118333,403.8,"(0.26863488999999996, 0.0, 0.0, 0.0, 0.41744521, 0.0, 0.0, 0.0, 129.0496)",1
2019/07/11/08:57:00.063625,130,1562828220,63494920,map,0,1,47.0592136667,15.4584136667,403.7,"(0.27604515999999996, 0.0, 0.0, 0.0, 0.41744521, 0.0, 0.0, 0.0, 129.0496)",1
2019/07/11/08:57:01.061801,131,1562828221,61656951,map,0,1,47.0592178333,15.458416,403.6,"(0.28355624999999995, 0.0, 0.0, 0.0, 0.41744521, 0.0, 0.0, 0.0, 129.0496)",1
2019/07/11/08:57:02.062249,132,1562828222,62098026,map,0,1,47.0592215,15.4584191667,403.3,"(0.2607123599999999, 0.0, 0.0, 0.0, 0.39425841, 0.0, 0.0, 0.0, 121.88159999999998)",1
2019/07/11/08:57:03.060750,133,1562828223,60619115,map,0,1,47.0592225,15.4584198333,403.3,"(0.26863488999999996, 0.0, 0.0, 0.0, 0.408321, 0.0, 0.0, 0.0, 129.0496)",1
2019/07/11/08:57:04.062697,134,1562828224,62580108,map,0,1,47.059222,15.4584201667,403.2,"(0.26132543999999996, 0.0, 0.0, 0.0, 0.408321, 0.0, 0.0, 0.0, 129.0496)",1
2019/07/11/08:57:05.061936,135,1562828225,61721086,map,0,1,47.0592238333,15.4584205,403.2,"(0.25411680999999997, 0.0, 0.0, 0.0, 0.39929761, 0.0, 0.0, 0.0, 129.0496)",1
2019/07/11/08:57:06.057664,136,1562828226,57498931,map,0,1,47.0592256667,15.4584206667,403.2,"(0.24700899999999995, 0.0, 0.0, 0.0, 0.39929761, 0.0, 0.0, 0.0, 129.0496)",1
2019/07/11/08:57:07.063397,137,1562828227,63258886,map,0,1,47.0592256667,15.4584198333,403.2,"(0.22667120999999993, 0.0, 0.0, 0.0, 0.36869183999999994, 0.0, 0.0, 0.0, 121.88159999999998)",1
2019/07/11/08:57:08.061890,138,1562828228,61661958,map,0,1,47.059227,15.4584203333,403.2,"(0.24000200999999996, 0.0, 0.0, 0.0, 0.3815532899999999, 0.0, 0.0, 0.0, 129.0496)",1
2019/07/11/08:57:09.063997,139,1562828229,63796997,map,0,1,47.0592303333,15.4584211667,403.2,"(0.22014864, 0.0, 0.0, 0.0, 0.3603600899999999, 0.0, 0.0, 0.0, 121.88159999999998)",1
2019/07/11/08:57:10.061252,140,1562828230,61077117,map,0,1,47.0592353333,15.4584213333,403.2,"(0.22629049, 0.0, 0.0, 0.0, 0.3728323599999999, 0.0, 0.0, 0.0, 129.0496)",1
2019/07/11/08:57:11.063060,141,1562828231,62880992,map,0,1,47.0592391667,15.4584205,403.2,"(0.22629049, 0.0, 0.0, 0.0, 0.3728323599999999, 0.0, 0.0, 0.0, 129.0496)",1
2019/07/11/08:57:12.061810,142,1562828232,61602115,map,0,1,47.0592406667,15.4584201667,403.3,"(0.20738915999999996, 0.0, 0.0, 0.0, 0.3439822499999999, 0.0, 0.0, 0.0, 121.88159999999998)",1
2019/07/11/08:57:13.062332,143,1562828233,62180042,map,0,1,47.059244,15.4584198333,403.3,"(0.21958596000000002, 0.0, 0.0, 0.0, 0.3642122499999999, 0.0, 0.0, 0.0, 129.0496)",1
2019/07/11/08:57:14.064607,144,1562828234,64307928,map,0,1,47.0592475,15.458419,403.4,"(0.20738915999999996, 0.0, 0.0, 0.0, 0.3359361599999999, 0.0, 0.0, 0.0, 121.88159999999998)",1
2019/07/11/08:57:15.061063,145,1562828235,60827016,map,0,1,47.059251,15.4584183333,403.4,"(0.25826724, 0.0, 0.0, 0.0, 0.41835024000000004, 0.0, 0.0, 0.0, 151.7824)",1
2019/07/11/08:57:16.061161,146,1562828236,60955047,map,0,1,47.059252,15.4584183333,403.4,"(0.25826724, 0.0, 0.0, 0.0, 0.41835024000000004, 0.0, 0.0, 0.0, 151.7824)",1
2019/07/11/08:57:17.060051,147,1562828237,59876918,map,0,1,47.0592516667,15.4584185,403.5,"(0.25250625000000004, 0.0, 0.0, 0.0, 0.41602500000000003, 0.0, 0.0, 0.0, 144.0)",1
2019/07/11/08:57:18.063011,148,1562828238,62820911,map,0,1,47.0592513333,15.4584185,403.6,"(0.22014864, 0.0, 0.0, 0.0, 0.3603600899999999, 0.0, 0.0, 0.0, 121.88159999999998)",1
2019/07/11/08:57:19.063216,149,1562828239,63093900,map,0,1,47.0592511667,15.4584185,403.6,"(0.24000200999999996, 0.0, 0.0, 0.0, 0.39929761, 0.0, 0.0, 0.0, 129.0496)",1
2019/07/11/08:57:20.061019,150,1562828240,60842990,map,0,1,47.059251,15.4584185,403.7,"(0.22667120999999993, 0.0, 0.0, 0.0, 0.385641, 0.0, 0.0, 0.0, 121.88159999999998)",1
2019/07/11/08:57:21.062986,151,1562828241,62815904,map,0,1,47.0592505,15.4584186667,403.8,"(0.23328899999999994, 0.0, 0.0, 0.0, 0.39425841, 0.0, 0.0, 0.0, 121.88159999999998)",1
2019/07/11/08:57:22.061229,152,1562828242,61044931,map,0,1,47.0592503333,15.4584188333,403.9,"(0.24700899999999995, 0.0, 0.0, 0.0, 0.41744521, 0.0, 0.0, 0.0, 129.0496)",1
2019/07/11/08:57:23.062877,153,1562828243,62702894,map,0,1,47.05925,15.4584191667,403.9,"(0.21996099999999996, 0.0, 0.0, 0.0, 0.37994896000000006, 0.0, 0.0, 0.0, 114.91840000000002)",1
2019/07/11/08:57:24.062621,154,1562828244,62474012,map,0,1,47.05925,15.4584191667,404.1,"(0.24000200999999996, 0.0, 0.0, 0.0, 0.40297104000000006, 0.0, 0.0, 0.0, 121.88159999999998)",1
2019/07/11/08:57:25.064809,155,1562828245,64634084,map,0,1,47.0592526667,15.4584188333,404.1,"(0.25411680999999997, 0.0, 0.0, 0.0, 0.42667024, 0.0, 0.0, 0.0, 129.0496)",1
2019/07/11/08:57:26.063302,156,1562828246,63121080,map,0,1,47.0592578333,15.4584185,404.0,"(0.30735936, 0.0, 0.0, 0.0, 0.5127992100000001, 0.0, 0.0, 0.0, 151.7824)",1
2019/07/11/08:57:27.064629,157,1562828247,64397096,map,0,1,47.059262,15.4584183333,404.1,"(0.2916, 0.0, 0.0, 0.0, 0.4761000000000001, 0.0, 0.0, 0.0, 144.0)",1
2019/07/11/08:57:28.060463,158,1562828248,60183048,map,0,1,47.0592646667,15.4584175,404.1,"(0.30735936, 0.0, 0.0, 0.0, 0.5127992100000001, 0.0, 0.0, 0.0, 151.7824)",1
2019/07/11/08:57:29.064125,159,1562828249,63992023,map,0,1,47.0592655,15.4584166667,404.1,"(0.26863488999999996, 0.0, 0.0, 0.0, 0.45495025, 0.0, 0.0, 0.0, 129.0496)",1
2019/07/11/08:57:30.063478,160,1562828250,63338041,map,0,1,47.0592651667,15.458416,404.1,"(0.3159564100000001, 0.0, 0.0, 0.0, 0.5464166399999999, 0.0, 0.0, 0.0, 151.7824)",1
2019/07/11/08:57:31.066724,161,1562828251,66595077,map,0,1,47.0592651667,15.4584156667,404.1,"(0.26863488999999996, 0.0, 0.0, 0.0, 0.46457856, 0.0, 0.0, 0.0, 129.0496)",1
2019/07/11/08:57:32.063194,162,1562828252,63075065,map,0,1,47.059265,15.4584155,404.1,"(0.26863488999999996, 0.0, 0.0, 0.0, 0.48413764, 0.0, 0.0, 0.0, 129.0496)",1
2019/07/11/08:57:33.063368,163,1562828253,63180923,map,0,1,47.0592648333,15.458415,404.1,"(0.28355624999999995, 0.0, 0.0, 0.0, 0.5041, 0.0, 0.0, 0.0, 129.0496)",1
2019/07/11/08:57:34.061251,164,1562828254,61113119,map,0,1,47.0592646667,15.4584146667,404.1,"(0.34245904000000005, 0.0, 0.0, 0.0, 0.5929, 0.0, 0.0, 0.0, 151.7824)",1
2019/07/11/08:57:35.059392,165,1562828255,59201955,map,0,1,47.0592655,15.4584138333,404.1,"(0.35153040999999996, 0.0, 0.0, 0.0, 0.5929, 0.0, 0.0, 0.0, 151.7824)",1
2019/07/11/08:57:36.061128,166,1562828256,60976028,map,0,1,47.0592663333,15.4584126667,404.0,"(0.35153040999999996, 0.0, 0.0, 0.0, 0.7174090000000002, 0.0, 0.0, 0.0, 151.7824)",1
2019/07/11/08:57:37.064075,167,1562828257,63844919,map,0,1,47.0592683333,15.4584121667,403.9,"(0.37002889000000005, 0.0, 0.0, 0.0, 0.7174090000000002, 0.0, 0.0, 0.0, 151.7824)",1
2019/07/11/08:57:38.063025,168,1562828258,62905073,map,0,1,47.0592703333,15.4584105,404.2,"(0.43033600000000005, 0.0, 0.0, 0.0, 0.813604, 0.0, 0.0, 0.0, 172.13439999999997)",1
2019/07/11/08:57:39.059891,169,1562828259,59768915,map,0,1,47.0592716667,15.4584106667,404.0,"(0.43033600000000005, 0.0, 0.0, 0.0, 0.813604, 0.0, 0.0, 0.0, 172.13439999999997)",1
2019/07/11/08:57:40.062947,170,1562828260,62822103,map,0,1,47.0592718333,15.4584106667,404.1,"(0.44116164, 0.0, 0.0, 0.0, 0.813604, 0.0, 0.0, 0.0, 172.13439999999997)",1
2019/07/11/08:57:41.063695,171,1562828261,63565015,map,0,1,47.0592748333,15.4584088333,404.1,"(0.39866595999999993, 0.0, 0.0, 0.0, 0.7174090000000002, 0.0, 0.0, 0.0, 151.7824)",1
2019/07/11/08:57:42.064896,172,1562828262,64583063,map,0,1,47.059276,15.4584078333,404.1,"(0.40844881, 0.0, 0.0, 0.0, 0.7174090000000002, 0.0, 0.0, 0.0, 151.7824)",1
2019/07/11/08:57:43.063199,173,1562828263,63055038,map,0,1,47.0592781667,15.458406,404.0,"(0.41835024000000004, 0.0, 0.0, 0.0, 0.7174090000000002, 0.0, 0.0, 0.0, 151.7824)",1
2019/07/11/08:57:44.063692,174,1562828264,63534975,map,0,1,47.0592793333,15.4584055,403.9,"(0.41602500000000003, 0.0, 0.0, 0.0, 0.8099999999999998, 0.0, 0.0, 0.0, 144.0)",1
2019/07/11/08:57:45.066171,175,1562828265,65944910,map,0,1,47.0592803333,15.4584058333,403.9,"(0.39929761, 0.0, 0.0, 0.0, 0.725904, 0.0, 0.0, 0.0, 129.0496)",1
2019/07/11/08:57:46.061450,176,1562828266,61283111,map,0,1,47.0592808333,15.4584061667,403.8,"(0.41744521, 0.0, 0.0, 0.0, 0.725904, 0.0, 0.0, 0.0, 129.0496)",1
2019/07/11/08:57:47.067188,177,1562828267,67023992,map,0,1,47.0592815,15.4584055,403.7,"(0.4117788899999999, 0.0, 0.0, 0.0, 0.685584, 0.0, 0.0, 0.0, 121.88159999999998)",1
2019/07/11/08:57:48.066125,178,1562828268,65666913,map,0,1,47.0592813333,15.4584051667,403.6,"(0.44542275999999986, 0.0, 0.0, 0.0, 0.725904, 0.0, 0.0, 0.0, 129.0496)",1
2019/07/11/08:57:49.065951,179,1562828269,65741062,map,0,1,47.0592825,15.458406,403.5,"(0.44542275999999986, 0.0, 0.0, 0.0, 0.725904, 0.0, 0.0, 0.0, 129.0496)",1
2019/07/11/08:57:50.064274,180,1562828270,64039945,map,0,1,47.059283,15.4584066667,403.4,"(0.45495025, 0.0, 0.0, 0.0, 0.725904, 0.0, 0.0, 0.0, 129.0496)",1
2019/07/11/08:57:51.065750,181,1562828271,65453052,map,0,1,47.0592828333,15.4584058333,403.5,"(0.46457856, 0.0, 0.0, 0.0, 0.725904, 0.0, 0.0, 0.0, 129.0496)",1
2019/07/11/08:57:52.064280,182,1562828272,64119100,map,0,1,47.0592833333,15.4584043333,403.6,"(0.47430768999999995, 0.0, 0.0, 0.0, 0.725904, 0.0, 0.0, 0.0, 129.0496)",1
2019/07/11/08:57:53.063683,183,1562828273,63455104,map,0,1,47.0592838333,15.4584036667,403.7,"(0.47430768999999995, 0.0, 0.0, 0.0, 0.725904, 0.0, 0.0, 0.0, 129.0496)",1
2019/07/11/08:57:54.063446,184,1562828274,63283920,map,0,1,47.059284,15.458403,403.8,"(0.47430768999999995, 0.0, 0.0, 0.0, 0.725904, 0.0, 0.0, 0.0, 129.0496)",1
2019/07/11/08:57:55.064027,185,1562828275,63802003,map,0,1,47.0592833333,15.4584025,404.0,"(0.48413764, 0.0, 0.0, 0.0, 0.725904, 0.0, 0.0, 0.0, 129.0496)",1
2019/07/11/08:57:56.064333,186,1562828276,64179897,map,0,1,47.0592831667,15.458401,403.9,"(0.49406840999999996, 0.0, 0.0, 0.0, 0.725904, 0.0, 0.0, 0.0, 129.0496)",1
2019/07/11/08:57:57.060428,187,1562828277,60306072,map,0,1,47.059281,15.4583976667,404.1,"(0.5041, 0.0, 0.0, 0.0, 0.725904, 0.0, 0.0, 0.0, 129.0496)",1
2019/07/11/08:57:58.063469,188,1562828278,63304901,map,0,1,47.0592795,15.4583941667,404.1,"(0.5041, 0.0, 0.0, 0.0, 0.725904, 0.0, 0.0, 0.0, 129.0496)",1
2019/07/11/08:57:59.064529,189,1562828279,64254045,map,0,1,47.0592778333,15.4583921667,404.2,"(0.5041, 0.0, 0.0, 0.0, 0.725904, 0.0, 0.0, 0.0, 129.0496)",1
2019/07/11/08:58:00.065792,190,1562828280,65471887,map,0,1,47.0592766667,15.4583911667,404.2,"(0.5041, 0.0, 0.0, 0.0, 0.725904, 0.0, 0.0, 0.0, 129.0496)",1
2019/07/11/08:58:01.064946,191,1562828281,64800024,map,0,1,47.0592731667,15.4583846667,404.2,"(0.5929, 0.0, 0.0, 0.0, 0.8537759999999999, 0.0, 0.0, 0.0, 151.7824)",1
2019/07/11/08:58:02.063328,192,1562828282,63189983,map,0,1,47.0592688333,15.4583751667,404.2,"(0.5929, 0.0, 0.0, 0.0, 0.8537759999999999, 0.0, 0.0, 0.0, 151.7824)",1
2019/07/11/08:58:03.065516,193,1562828283,65285921,map,0,1,47.0592656667,15.458368,404.2,"(0.5929, 0.0, 0.0, 0.0, 0.8537759999999999, 0.0, 0.0, 0.0, 151.7824)",1
2019/07/11/08:58:04.063723,194,1562828284,63580036,map,0,1,47.0592621667,15.4583596667,404.2,"(0.5929, 0.0, 0.0, 0.0, 0.8537759999999999, 0.0, 0.0, 0.0, 151.7824)",1
2019/07/11/08:58:05.064123,195,1562828285,63926935,map,0,1,47.0592581667,15.4583513333,404.2,"(0.5041, 0.0, 0.0, 0.0, 0.725904, 0.0, 0.0, 0.0, 129.0496)",1
2019/07/11/08:58:06.064721,196,1562828286,64471006,map,0,1,47.0592536667,15.4583423333,404.2,"(0.5929, 0.0, 0.0, 0.0, 0.8537759999999999, 0.0, 0.0, 0.0, 151.7824)",1
2019/07/11/08:58:07.064139,197,1562828287,63960075,map,0,1,47.0592503333,15.4583353333,404.3,"(0.47430768999999995, 0.0, 0.0, 0.0, 0.6099610000000001, 0.0, 0.0, 0.0, 129.0496)",1
2019/07/11/08:58:08.059417,198,1562828288,59304952,map,0,1,47.0592496667,15.4583338333,404.3,"(0.5350922499999999, 0.0, 0.0, 0.0, 0.7174090000000002, 0.0, 0.0, 0.0, 151.7824)",1
2019/07/11/08:58:09.064371,199,1562828289,64198970,map,0,1,47.0592483333,15.4583285,404.4,"(0.42667024, 0.0, 0.0, 0.0, 0.6099610000000001, 0.0, 0.0, 0.0, 129.0496)",1
2019/07/11/08:58:10.064299,200,1562828290,64167022,map,0,1,47.0592476667,15.458327,404.6,"(0.41744521, 0.0, 0.0, 0.0, 0.6099610000000001, 0.0, 0.0, 0.0, 129.0496)",1
2019/07/11/08:58:11.063797,201,1562828291,63678026,map,0,1,47.0592453333,15.4583211667,404.7,"(0.37711880999999997, 0.0, 0.0, 0.0, 0.5760810000000001, 0.0, 0.0, 0.0, 121.88159999999998)",1
2019/07/11/08:58:12.064658,202,1562828292,64357995,map,0,1,47.0592445,15.458319,404.8,"(0.3521235599999999, 0.0, 0.0, 0.0, 0.5760810000000001, 0.0, 0.0, 0.0, 121.88159999999998)",1
2019/07/11/08:58:13.066250,203,1562828293,66095113,map,0,1,47.0592448333,15.4583196667,404.9,"(0.3439822499999999, 0.0, 0.0, 0.0, 0.5760810000000001, 0.0, 0.0, 0.0, 121.88159999999998)",1
2019/07/11/08:58:14.065119,204,1562828294,64979076,map,0,1,47.059245,15.4583195,405.1,"(0.42837024999999995, 0.0, 0.0, 0.0, 0.7174090000000002, 0.0, 0.0, 0.0, 151.7824)",1
2019/07/11/08:58:15.060907,205,1562828295,60790061,map,0,1,47.0592451667,15.4583196667,405.2,"(0.3439822499999999, 0.0, 0.0, 0.0, 0.5760810000000001, 0.0, 0.0, 0.0, 121.88159999999998)",1
2019/07/11/08:58:16.066258,206,1562828296,66070079,map,0,1,47.0592453333,15.4583198333,405.2,"(0.3439822499999999, 0.0, 0.0, 0.0, 0.5760810000000001, 0.0, 0.0, 0.0, 121.88159999999998)",1
2019/07/11/08:58:17.065238,207,1562828297,64982891,map,0,1,47.0592455,15.4583198333,405.3,"(0.3603600899999999, 0.0, 0.0, 0.0, 0.5760810000000001, 0.0, 0.0, 0.0, 121.88159999999998)",1
2019/07/11/08:58:18.065889,208,1562828298,65561056,map,0,1,47.0592458333,15.45832,405.3,"(0.36869183999999994, 0.0, 0.0, 0.0, 0.5760810000000001, 0.0, 0.0, 0.0, 121.88159999999998)",1
2019/07/11/08:58:19.063486,209,1562828299,63322067,map,0,1,47.0592443333,15.4583163333,405.2,"(0.37711880999999997, 0.0, 0.0, 0.0, 0.5760810000000001, 0.0, 0.0, 0.0, 121.88159999999998)",1
2019/07/11/08:58:20.064453,210,1562828300,64279079,map,0,1,47.059243,15.4583141667,405.3,"(0.46580625, 0.0, 0.0, 0.0, 0.8099999999999998, 0.0, 0.0, 0.0, 144.0)",1
2019/07/11/08:58:21.066252,211,1562828301,66080093,map,0,1,47.0592406667,15.4583081667,405.3,"(0.40297104000000006, 0.0, 0.0, 0.0, 0.685584, 0.0, 0.0, 0.0, 121.88159999999998)",1
2019/07/11/08:58:22.065623,212,1562828302,65465927,map,0,1,47.0592371667,15.4583006667,405.4,"(0.40297104000000006, 0.0, 0.0, 0.0, 0.685584, 0.0, 0.0, 0.0, 121.88159999999998)",1
2019/07/11/08:58:23.065198,213,1562828303,65006017,map,0,1,47.0592338333,15.458292,405.6,"(0.40297104000000006, 0.0, 0.0, 0.0, 0.685584, 0.0, 0.0, 0.0, 121.88159999999998)",1
2019/07/11/08:58:24.064920,214,1562828304,64790010,map,0,1,47.0592321667,15.4582875,405.6,"(0.39425841, 0.0, 0.0, 0.0, 0.685584, 0.0, 0.0, 0.0, 121.88159999999998)",1
2019/07/11/08:58:25.066181,215,1562828305,66066980,map,0,1,47.0592286667,15.4582786667,405.6,"(0.42667024, 0.0, 0.0, 0.0, 0.725904, 0.0, 0.0, 0.0, 129.0496)",1
2019/07/11/08:58:26.060104,216,1562828306,59946060,map,0,1,47.0592241667,15.4582673333,405.6,"(0.46580625, 0.0, 0.0, 0.0, 0.8099999999999998, 0.0, 0.0, 0.0, 144.0)",1
2019/07/11/08:58:27.063803,217,1562828307,63663959,map,0,1,47.0592225,15.4582638333,405.6,"(0.43599609, 0.0, 0.0, 0.0, 0.725904, 0.0, 0.0, 0.0, 129.0496)",1
2019/07/11/08:58:28.063786,218,1562828308,63622951,map,0,1,47.0592223333,15.4582636667,405.5,"(0.45495025, 0.0, 0.0, 0.0, 0.725904, 0.0, 0.0, 0.0, 129.0496)",1
2019/07/11/08:58:29.065398,219,1562828309,65246105,map,0,1,47.05922,15.4582593333,405.7,"(0.45724643999999987, 0.0, 0.0, 0.0, 0.8046089999999998, 0.0, 0.0, 0.0, 121.88159999999998)",1
2019/07/11/08:58:30.064888,220,1562828310,64737081,map,0,1,47.0592166667,15.458253,405.8,"(0.4760999999999999, 0.0, 0.0, 0.0, 0.8046089999999998, 0.0, 0.0, 0.0, 121.88159999999998)",1
2019/07/11/08:58:31.066850,221,1562828311,66525936,map,0,1,47.0592128333,15.4582421667,405.9,"(0.5041, 0.0, 0.0, 0.0, 0.725904, 0.0, 0.0, 0.0, 129.0496)",1
2019/07/11/08:58:32.065930,222,1562828312,65808057,map,0,1,47.0592081667,15.4582308333,406.0,"(0.49406840999999996, 0.0, 0.0, 0.0, 0.725904, 0.0, 0.0, 0.0, 129.0496)",1
2019/07/11/08:58:33.065290,223,1562828313,65043926,map,0,1,47.059205,15.4582193333,405.8,"(0.5041, 0.0, 0.0, 0.0, 0.8519289999999998, 0.0, 0.0, 0.0, 129.0496)",1
2019/07/11/08:58:34.064999,224,1562828314,64815998,map,0,1,47.0592021667,15.4582076667,405.6,"(0.5041, 0.0, 0.0, 0.0, 0.8519289999999998, 0.0, 0.0, 0.0, 129.0496)",1
2019/07/11/08:58:35.064404,225,1562828315,64074039,map,0,1,47.0591975,15.4581963333,405.5,"(0.5929, 0.0, 0.0, 0.0, 1.0020010000000001, 0.0, 0.0, 0.0, 151.7824)",1
2019/07/11/08:58:36.063504,226,1562828316,63334941,map,0,1,47.0591935,15.4581856667,405.5,"(0.5929, 0.0, 0.0, 0.0, 1.0020010000000001, 0.0, 0.0, 0.0, 151.7824)",1
2019/07/11/08:58:37.061290,227,1562828317,61038017,map,0,1,47.0591896667,15.4581753333,405.5,"(0.5929, 0.0, 0.0, 0.0, 1.0020010000000001, 0.0, 0.0, 0.0, 151.7824)",1
2019/07/11/08:58:38.064368,228,1562828318,64229965,map,0,1,47.0591861667,15.4581646667,405.7,"(0.4760999999999999, 0.0, 0.0, 0.0, 0.8046089999999998, 0.0, 0.0, 0.0, 121.88159999999998)",1
2019/07/11/08:58:39.064859,229,1562828319,64707994,map,0,1,47.0591825,15.458153,405.7,"(0.5041, 0.0, 0.0, 0.0, 0.8519289999999998, 0.0, 0.0, 0.0, 129.0496)",1
2019/07/11/08:58:40.064489,230,1562828320,64363956,map,0,1,47.0591788333,15.4581421667,405.7,"(0.5041, 0.0, 0.0, 0.0, 0.8519289999999998, 0.0, 0.0, 0.0, 129.0496)",1
2019/07/11/08:58:41.064750,231,1562828321,64590930,map,0,1,47.0591748333,15.4581335,405.8,"(0.5041, 0.0, 0.0, 0.0, 0.8519289999999998, 0.0, 0.0, 0.0, 129.0496)",1
2019/07/11/08:58:42.064637,232,1562828322,64512014,map,0,1,47.0591706667,15.4581238333,405.8,"(0.5041, 0.0, 0.0, 0.0, 0.8519289999999998, 0.0, 0.0, 0.0, 129.0496)",1
2019/07/11/08:58:43.064998,233,1562828323,64814090,map,0,1,47.0591651667,15.4581135,405.9,"(0.5041, 0.0, 0.0, 0.0, 0.725904, 0.0, 0.0, 0.0, 129.0496)",1
2019/07/11/08:58:44.061310,234,1562828324,61058044,map,0,1,47.0591606667,15.458103,405.8,"(0.5929, 0.0, 0.0, 0.0, 0.8537759999999999, 0.0, 0.0, 0.0, 151.7824)",1
2019/07/11/08:58:45.065006,235,1562828325,64637899,map,0,1,47.0591568333,15.458093,405.7,"(0.5041, 0.0, 0.0, 0.0, 0.725904, 0.0, 0.0, 0.0, 129.0496)",1
2019/07/11/08:58:46.064801,236,1562828326,64469099,map,0,1,47.0591546667,15.458087,405.7,"(0.47430768999999995, 0.0, 0.0, 0.0, 0.725904, 0.0, 0.0, 0.0, 129.0496)",1
2019/07/11/08:58:47.063807,237,1562828327,63646078,map,0,1,47.0591546667,15.4580865,405.6,"(0.5076562499999999, 0.0, 0.0, 0.0, 0.8099999999999998, 0.0, 0.0, 0.0, 144.0)",1
2019/07/11/08:58:48.060282,238,1562828328,60161113,map,0,1,47.059155,15.4580875,405.5,"(0.49702499999999994, 0.0, 0.0, 0.0, 0.8099999999999998, 0.0, 0.0, 0.0, 144.0)",1
2019/07/11/08:58:49.063884,239,1562828329,63640117,map,0,1,47.0591551667,15.4580886667,405.3,"(0.49702499999999994, 0.0, 0.0, 0.0, 0.8099999999999998, 0.0, 0.0, 0.0, 144.0)",1
2019/07/11/08:58:50.064422,240,1562828330,64307928,map,0,1,47.0591555,15.4580893333,405.2,"(0.39664804000000004, 0.0, 0.0, 0.0, 0.6464160000000001, 0.0, 0.0, 0.0, 114.91840000000002)",1
2019/07/11/08:58:51.064689,241,1562828331,64558982,map,0,1,47.0591558333,15.4580903333,405.1,"(0.4117788899999999, 0.0, 0.0, 0.0, 0.685584, 0.0, 0.0, 0.0, 121.88159999999998)",1
2019/07/11/08:58:52.066277,242,1562828332,65794944,map,0,1,47.0591563333,15.4580913333,405.0,"(0.4117788899999999, 0.0, 0.0, 0.0, 0.685584, 0.0, 0.0, 0.0, 121.88159999999998)",1
2019/07/11/08:58:53.064593,243,1562828333,64414978,map,0,1,47.0591565,15.4580921667,404.8,"(0.37994896000000006, 0.0, 0.0, 0.0, 0.6464160000000001, 0.0, 0.0, 0.0, 114.91840000000002)",1
2019/07/11/08:58:54.064412,244,1562828334,64251899,map,0,1,47.0591566667,15.458093,404.7,"(0.40297104000000006, 0.0, 0.0, 0.0, 0.685584, 0.0, 0.0, 0.0, 121.88159999999998)",1
2019/07/11/08:58:55.061275,245,1562828335,61042070,map,0,1,47.0591566667,15.4580936667,404.6,"(0.39425841, 0.0, 0.0, 0.0, 0.685584, 0.0, 0.0, 0.0, 121.88159999999998)",1
2019/07/11/08:58:56.065877,246,1562828336,65686941,map,0,1,47.0591568333,15.458094,404.5,"(0.37173409, 0.0, 0.0, 0.0, 0.6464160000000001, 0.0, 0.0, 0.0, 114.91840000000002)",1
2019/07/11/08:58:57.064296,247,1562828337,64129114,map,0,1,47.059157,15.4580941667,404.4,"(0.385641, 0.0, 0.0, 0.0, 0.685584, 0.0, 0.0, 0.0, 121.88159999999998)",1
2019/07/11/08:58:58.064121,248,1562828338,64006090,map,0,1,47.0591571667,15.4580941667,404.3,"(0.385641, 0.0, 0.0, 0.0, 0.685584, 0.0, 0.0, 0.0, 121.88159999999998)",1
2019/07/11/08:58:59.063640,249,1562828339,63446044,map,0,1,47.0591573333,15.4580943333,404.2,"(0.385641, 0.0, 0.0, 0.0, 0.685584, 0.0, 0.0, 0.0, 121.88159999999998)",1
2019/07/11/08:59:00.065940,250,1562828340,65684080,map,0,1,47.0591575,15.4580941667,404.2,"(0.37711880999999997, 0.0, 0.0, 0.0, 0.685584, 0.0, 0.0, 0.0, 121.88159999999998)",1
2019/07/11/08:59:01.065289,251,1562828341,65110921,map,0,1,47.0591575,15.458094,404.1,"(0.37711880999999997, 0.0, 0.0, 0.0, 0.685584, 0.0, 0.0, 0.0, 121.88159999999998)",1
2019/07/11/08:59:02.064701,252,1562828342,64471006,map,0,1,47.0591576667,15.4580938333,404.1,"(0.35557369000000005, 0.0, 0.0, 0.0, 0.6464160000000001, 0.0, 0.0, 0.0, 114.91840000000002)",1
2019/07/11/08:59:03.064010,253,1562828343,63867092,map,0,1,47.0591576667,15.4580933333,404.1,"(0.39037504, 0.0, 0.0, 0.0, 0.725904, 0.0, 0.0, 0.0, 129.0496)",1
2019/07/11/08:59:04.064016,254,1562828344,63824892,map,0,1,47.0591578333,15.4580928333,404.1,"(0.36869183999999994, 0.0, 0.0, 0.0, 0.685584, 0.0, 0.0, 0.0, 121.88159999999998)",1
2019/07/11/08:59:05.064969,255,1562828345,64783096,map,0,1,47.059158,15.4580925,404.1,"(0.34762816, 0.0, 0.0, 0.0, 0.6464160000000001, 0.0, 0.0, 0.0, 114.91840000000002)",1
2019/07/11/08:59:06.060257,256,1562828346,60134887,map,0,1,47.059158,15.4580918333,404.2,"(0.36869183999999994, 0.0, 0.0, 0.0, 0.685584, 0.0, 0.0, 0.0, 121.88159999999998)",1
2019/07/11/08:59:07.064008,257,1562828347,63821077,map,0,1,47.0591578333,15.4580901667,404.2,"(0.3603600899999999, 0.0, 0.0, 0.0, 0.685584, 0.0, 0.0, 0.0, 121.88159999999998)",1
2019/07/11/08:59:08.064211,258,1562828348,64074039,map,0,1,47.0591561667,15.4580865,404.2,"(0.3397724100000001, 0.0, 0.0, 0.0, 0.6464160000000001, 0.0, 0.0, 0.0, 114.91840000000002)",1
2019/07/11/08:59:09.064543,259,1562828349,64311027,map,0,1,47.0591533333,15.45808,404.1,"(0.3603600899999999, 0.0, 0.0, 0.0, 0.5760810000000001, 0.0, 0.0, 0.0, 121.88159999999998)",1
2019/07/11/08:59:10.064789,260,1562828350,64659118,map,0,1,47.05915,15.4580716667,404.3,"(0.3603600899999999, 0.0, 0.0, 0.0, 0.5760810000000001, 0.0, 0.0, 0.0, 121.88159999999998)",1
2019/07/11/08:59:11.065106,261,1562828351,64977884,map,0,1,47.0591486667,15.4580683333,404.4,"(0.3397724100000001, 0.0, 0.0, 0.0, 0.6464160000000001, 0.0, 0.0, 0.0, 114.91840000000002)",1
2019/07/11/08:59:12.064377,262,1562828352,64158916,map,0,1,47.0591458333,15.4580603333,404.4,"(0.3603600899999999, 0.0, 0.0, 0.0, 0.685584, 0.0, 0.0, 0.0, 121.88159999999998)",1
2019/07/11/08:59:13.064308,263,1562828353,64189910,map,0,1,47.0591413333,15.45805,404.5,"(0.42575624999999995, 0.0, 0.0, 0.0, 0.8099999999999998, 0.0, 0.0, 0.0, 144.0)",1
2019/07/11/08:59:14.063908,264,1562828354,63663005,map,0,1,47.0591383333,15.4580448333,404.5,"(0.40640624999999997, 0.0, 0.0, 0.0, 0.8099999999999998, 0.0, 0.0, 0.0, 144.0)",1
2019/07/11/08:59:15.065304,265,1562828355,65099954,map,0,1,47.0591366667,15.4580443333,404.5,"(0.39690000000000003, 0.0, 0.0, 0.0, 0.6806250000000001, 0.0, 0.0, 0.0, 144.0)",1
2019/07/11/08:59:16.064240,266,1562828356,64119100,map,0,1,47.0591356667,15.4580443333,404.5,"(0.38750624999999994, 0.0, 0.0, 0.0, 0.6806250000000001, 0.0, 0.0, 0.0, 144.0)",1
2019/07/11/08:59:17.060091,267,1562828357,59968948,map,0,1,47.0591348333,15.4580443333,404.6,"(0.378225, 0.0, 0.0, 0.0, 0.6806250000000001, 0.0, 0.0, 0.0, 144.0)",1
2019/07/11/08:59:18.064563,268,1562828358,64431905,map,0,1,47.0591333333,15.4580428333,404.7,"(0.36820624, 0.0, 0.0, 0.0, 0.6625960000000001, 0.0, 0.0, 0.0, 140.1856)",1
2019/07/11/08:59:19.064862,269,1562828359,64706087,map,0,1,47.059132,15.4580398333,404.8,"(0.3592803600000001, 0.0, 0.0, 0.0, 0.788544, 0.0, 0.0, 0.0, 140.1856)",1
2019/07/11/08:59:20.065154,270,1562828360,65020084,map,0,1,47.0591313333,15.4580383333,404.9,"(0.3047039999999999, 0.0, 0.0, 0.0, 0.5760810000000001, 0.0, 0.0, 0.0, 121.88159999999998)",1
2019/07/11/08:59:21.064987,271,1562828361,64805984,map,0,1,47.0591283333,15.458031,404.9,"(0.35105625, 0.0, 0.0, 0.0, 0.6806250000000001, 0.0, 0.0, 0.0, 144.0)",1
2019/07/11/08:59:22.066844,272,1562828362,66586017,map,0,1,47.0591258333,15.4580248333,404.9,"(0.3047039999999999, 0.0, 0.0, 0.0, 0.5760810000000001, 0.0, 0.0, 0.0, 121.88159999999998)",1
2019/07/11/08:59:23.065277,273,1562828363,65120935,map,0,1,47.0591241667,15.4580196667,404.8,"(0.29713401, 0.0, 0.0, 0.0, 0.5760810000000001, 0.0, 0.0, 0.0, 121.88159999999998)",1
2019/07/11/08:59:24.062337,274,1562828364,62196016,map,0,1,47.059122,15.4580128333,404.7,"(0.29713401, 0.0, 0.0, 0.0, 0.5760810000000001, 0.0, 0.0, 0.0, 121.88159999999998)",1
2019/07/11/08:59:25.065250,275,1562828365,65073966,map,0,1,47.0591213333,15.4580093333,404.6,"(0.31460880999999996, 0.0, 0.0, 0.0, 0.6099610000000001, 0.0, 0.0, 0.0, 129.0496)",1
2019/07/11/08:59:26.064792,276,1562828366,64596891,map,0,1,47.0591211667,15.4580085,404.6,"(0.35105625, 0.0, 0.0, 0.0, 0.6806250000000001, 0.0, 0.0, 0.0, 144.0)",1
2019/07/11/08:59:27.065438,277,1562828367,65304040,map,0,1,47.0591216667,15.458008,404.7,"(0.29713401, 0.0, 0.0, 0.0, 0.5760810000000001, 0.0, 0.0, 0.0, 121.88159999999998)",1
2019/07/11/08:59:28.063672,278,1562828368,63546895,map,0,1,47.0591205,15.458004,404.8,"(0.29713401, 0.0, 0.0, 0.0, 0.5760810000000001, 0.0, 0.0, 0.0, 121.88159999999998)",1
2019/07/11/08:59:29.067137,279,1562828369,66981077,map,0,1,47.0591183333,15.4579968333,404.8,"(0.2801584900000001, 0.0, 0.0, 0.0, 0.5431690000000001, 0.0, 0.0, 0.0, 114.91840000000002)",1
2019/07/11/08:59:30.065357,280,1562828370,65170049,map,0,1,47.059118,15.4579941667,405.0,"(0.3047039999999999, 0.0, 0.0, 0.0, 0.5760810000000001, 0.0, 0.0, 0.0, 121.88159999999998)",1
2019/07/11/08:59:31.066046,281,1562828371,65844058,map,0,1,47.0591181667,15.4579941667,405.2,"(0.31236920999999995, 0.0, 0.0, 0.0, 0.5760810000000001, 0.0, 0.0, 0.0, 121.88159999999998)",1
2019/07/11/08:59:32.064861,282,1562828372,64717054,map,0,1,47.0591183333,15.4579938333,405.3,"(0.32012964, 0.0, 0.0, 0.0, 0.5760810000000001, 0.0, 0.0, 0.0, 121.88159999999998)",1
2019/07/11/08:59:33.065955,283,1562828373,65737962,map,0,1,47.0591158333,15.4579873333,405.4,"(0.3279852899999999, 0.0, 0.0, 0.0, 0.4760999999999999, 0.0, 0.0, 0.0, 121.88159999999998)",1
2019/07/11/08:59:34.064198,284,1562828374,64028024,map,0,1,47.0591121667,15.4579773333,405.5,"(0.3279852899999999, 0.0, 0.0, 0.0, 0.4760999999999999, 0.0, 0.0, 0.0, 121.88159999999998)",1
2019/07/11/08:59:35.061014,285,1562828375,60801982,map,0,1,47.059108,15.4579691667,405.6,"(0.31674383999999994, 0.0, 0.0, 0.0, 0.4489000000000001, 0.0, 0.0, 0.0, 114.91840000000002)",1
2019/07/11/08:59:36.063926,286,1562828376,63751935,map,0,1,47.0591061667,15.4579666667,405.7,"(0.39690000000000003, 0.0, 0.0, 0.0, 0.5625, 0.0, 0.0, 0.0, 144.0)",1
2019/07/11/08:59:37.065065,287,1562828377,64873933,map,0,1,47.0591026667,15.4579593333,405.7,"(0.32012964, 0.0, 0.0, 0.0, 0.4760999999999999, 0.0, 0.0, 0.0, 121.88159999999998)",1
2019/07/11/08:59:38.066306,288,1562828378,66121101,map,0,1,47.059101,15.4579561667,405.7,"(0.32012964, 0.0, 0.0, 0.0, 0.4760999999999999, 0.0, 0.0, 0.0, 121.88159999999998)",1
2019/07/11/08:59:39.065442,289,1562828379,65306901,map,0,1,47.059101,15.4579563333,405.8,"(0.32012964, 0.0, 0.0, 0.0, 0.4760999999999999, 0.0, 0.0, 0.0, 121.88159999999998)",1
2019/07/11/08:59:40.064851,290,1562828380,64616918,map,0,1,47.0591011667,15.4579565,405.8,"(0.31236920999999995, 0.0, 0.0, 0.0, 0.4760999999999999, 0.0, 0.0, 0.0, 121.88159999999998)",1
2019/07/11/08:59:41.064947,291,1562828381,64738988,map,0,1,47.0591015,15.4579563333,405.9,"(0.31236920999999995, 0.0, 0.0, 0.0, 0.4760999999999999, 0.0, 0.0, 0.0, 121.88159999999998)",1
2019/07/11/08:59:42.064507,292,1562828382,64306974,map,0,1,47.0591015,15.4579561667,405.9,"(0.31236920999999995, 0.0, 0.0, 0.0, 0.4760999999999999, 0.0, 0.0, 0.0, 121.88159999999998)",1
2019/07/11/08:59:43.066050,293,1562828383,65902948,map,0,1,47.0591008333,15.4579545,406.0,"(0.31236920999999995, 0.0, 0.0, 0.0, 0.5760810000000001, 0.0, 0.0, 0.0, 121.88159999999998)",1
2019/07/11/08:59:44.065102,294,1562828384,64948081,map,0,1,47.0591005,15.4579538333,406.0,"(0.31236920999999995, 0.0, 0.0, 0.0, 0.5760810000000001, 0.0, 0.0, 0.0, 121.88159999999998)",1
2019/07/11/08:59:45.065723,295,1562828385,65565109,map,0,1,47.0591,15.4579531667,406.0,"(0.3047039999999999, 0.0, 0.0, 0.0, 0.5760810000000001, 0.0, 0.0, 0.0, 121.88159999999998)",1
2019/07/11/08:59:46.060726,296,1562828386,60586929,map,0,1,47.0590995,15.457953,406.0,"(0.3047039999999999, 0.0, 0.0, 0.0, 0.5760810000000001, 0.0, 0.0, 0.0, 121.88159999999998)",1
2019/07/11/08:59:47.064089,297,1562828387,63950061,map,0,1,47.0590988333,15.4579526667,406.1,"(0.31236920999999995, 0.0, 0.0, 0.0, 0.5760810000000001, 0.0, 0.0, 0.0, 121.88159999999998)",1
2019/07/11/08:59:48.065448,298,1562828388,65275907,map,0,1,47.059097,15.4579493333,406.1,"(0.34963569000000005, 0.0, 0.0, 0.0, 0.6448090000000001, 0.0, 0.0, 0.0, 136.42239999999998)",1
2019/07/11/08:59:49.065884,299,1562828389,65579891,map,0,1,47.0590933333,15.4579436667,406.0,"(0.32012964, 0.0, 0.0, 0.0, 0.5760810000000001, 0.0, 0.0, 0.0, 121.88159999999998)",1
2019/07/11/08:59:50.066041,300,1562828390,65898895,map,0,1,47.0590901667,15.4579376667,406.0,"(0.3279852899999999, 0.0, 0.0, 0.0, 0.5760810000000001, 0.0, 0.0, 0.0, 121.88159999999998)",1
2019/07/11/08:59:51.064061,301,1562828391,63937902,map,0,1,47.0590871667,15.4579298333,406.1,"(0.38750624999999994, 0.0, 0.0, 0.0, 0.6806250000000001, 0.0, 0.0, 0.0, 144.0)",1
2019/07/11/08:59:52.065468,302,1562828392,65347909,map,0,1,47.0590851667,15.4579233333,406.1,"(0.3279852899999999, 0.0, 0.0, 0.0, 0.5760810000000001, 0.0, 0.0, 0.0, 121.88159999999998)",1
2019/07/11/08:59:53.064114,303,1562828393,63909053,map,0,1,47.059085,15.4579216667,406.2,"(0.30924721000000005, 0.0, 0.0, 0.0, 0.5431690000000001, 0.0, 0.0, 0.0, 114.91840000000002)",1
2019/07/11/08:59:54.065459,304,1562828394,65335035,map,0,1,47.0590848333,15.4579215,406.2,"(0.3279852899999999, 0.0, 0.0, 0.0, 0.5760810000000001, 0.0, 0.0, 0.0, 121.88159999999998)",1
2019/07/11/08:59:55.065504,305,1562828395,65359115,map,0,1,47.0590848333,15.4579216667,406.3,"(0.32012964, 0.0, 0.0, 0.0, 0.5760810000000001, 0.0, 0.0, 0.0, 121.88159999999998)",1
2019/07/11/08:59:56.066555,306,1562828396,66342115,map,0,1,47.0590846667,15.457922,406.3,"(0.32012964, 0.0, 0.0, 0.0, 0.5760810000000001, 0.0, 0.0, 0.0, 121.88159999999998)",1
2019/07/11/08:59:57.062132,307,1562828397,61908006,map,0,1,47.0590841667,15.4579221667,406.3,"(0.36820624, 0.0, 0.0, 0.0, 0.6625960000000001, 0.0, 0.0, 0.0, 140.1856)",1
2019/07/11/08:59:58.066134,308,1562828398,66009998,map,0,1,47.0590836667,15.4579223333,406.3,"(0.2945232900000001, 0.0, 0.0, 0.0, 0.5431690000000001, 0.0, 0.0, 0.0, 114.91840000000002)",1
2019/07/11/08:59:59.065888,309,1562828399,65762996,map,0,1,47.0590831667,15.4579223333,406.4,"(0.2945232900000001, 0.0, 0.0, 0.0, 0.5431690000000001, 0.0, 0.0, 0.0, 114.91840000000002)",1
2019/07/11/09:00:00.067528,310,1562828400,67322015,map,0,1,47.0590813333,15.4579175,406.4,"(0.3401222400000001, 0.0, 0.0, 0.0, 0.5184, 0.0, 0.0, 0.0, 132.7104)",1
2019/07/11/09:00:01.066008,311,1562828401,65892934,map,0,1,47.0590785,15.4579101667,406.4,"(0.33177599999999996, 0.0, 0.0, 0.0, 0.5184, 0.0, 0.0, 0.0, 132.7104)",1
2019/07/11/09:00:02.064464,312,1562828402,64275979,map,0,1,47.0590743333,15.4579008333,406.5,"(0.34963569000000005, 0.0, 0.0, 0.0, 0.5328999999999999, 0.0, 0.0, 0.0, 136.42239999999998)",1
2019/07/11/09:00:03.064578,313,1562828403,64385890,map,0,1,47.0590705,15.457893,406.5,"(0.34963569000000005, 0.0, 0.0, 0.0, 0.5328999999999999, 0.0, 0.0, 0.0, 136.42239999999998)",1
2019/07/11/09:00:04.060503,314,1562828404,60384035,map,0,1,47.0590673333,15.457887,406.5,"(0.34963569000000005, 0.0, 0.0, 0.0, 0.5328999999999999, 0.0, 0.0, 0.0, 136.42239999999998)",1
2019/07/11/09:00:05.062293,315,1562828405,62143087,map,0,1,47.059064,15.4578801667,406.5,"(0.39917124000000004, 0.0, 0.0, 0.0, 0.6084, 0.0, 0.0, 0.0, 155.7504)",1
2019/07/11/09:00:06.062780,316,1562828406,62644958,map,0,1,47.0590628333,15.457877,406.5,"(0.39917124000000004, 0.0, 0.0, 0.0, 0.6084, 0.0, 0.0, 0.0, 155.7504)",1
2019/07/11/09:00:07.063938,317,1562828407,63783884,map,0,1,47.0590626667,15.457877,406.5,"(0.39917124000000004, 0.0, 0.0, 0.0, 0.6084, 0.0, 0.0, 0.0, 155.7504)",1
2019/07/11/09:00:08.063790,318,1562828408,63672065,map,0,1,47.0590628333,15.4578773333,406.7,"(0.3893760000000001, 0.0, 0.0, 0.0, 0.6084, 0.0, 0.0, 0.0, 155.7504)",1
2019/07/11/09:00:09.066250,319,1562828409,66081047,map,0,1,47.059063,15.4578775,406.8,"(0.3797024400000001, 0.0, 0.0, 0.0, 0.6084, 0.0, 0.0, 0.0, 155.7504)",1
2019/07/11/09:00:10.062175,320,1562828410,62027931,map,0,1,47.059063,15.4578781667,406.9,"(0.3797024400000001, 0.0, 0.0, 0.0, 0.6084, 0.0, 0.0, 0.0, 155.7504)",1
2019/07/11/09:00:11.064293,321,1562828411,64110994,map,0,1,47.059063,15.4578785,407.0,"(0.33258288999999996, 0.0, 0.0, 0.0, 0.5328999999999999, 0.0, 0.0, 0.0, 136.42239999999998)",1
2019/07/11/09:00:12.064770,322,1562828412,64605951,map,0,1,47.0590626667,15.4578786667,407.1,"(0.27311076000000006, 0.0, 0.0, 0.0, 0.4489000000000001, 0.0, 0.0, 0.0, 114.91840000000002)",1
2019/07/11/09:00:13.065727,323,1562828413,65581083,map,0,1,47.0590621667,15.4578785,407.2,"(0.27311076000000006, 0.0, 0.0, 0.0, 0.4489000000000001, 0.0, 0.0, 0.0, 114.91840000000002)",1
2019/07/11/09:00:14.066447,324,1562828414,66040039,map,0,1,47.0590616667,15.4578786667,407.3,"(0.2801584900000001, 0.0, 0.0, 0.0, 0.4489000000000001, 0.0, 0.0, 0.0, 114.91840000000002)",1
2019/07/11/09:00:15.062583,325,1562828415,62362909,map,0,1,47.0590615,15.4578788333,407.3,"(0.28729600000000005, 0.0, 0.0, 0.0, 0.5431690000000001, 0.0, 0.0, 0.0, 114.91840000000002)",1
2019/07/11/09:00:16.064741,326,1562828416,64594030,map,0,1,47.0590595,15.4578733333,407.3,"(0.28729600000000005, 0.0, 0.0, 0.0, 0.5431690000000001, 0.0, 0.0, 0.0, 114.91840000000002)",1
2019/07/11/09:00:17.064347,327,1562828417,64229011,map,0,1,47.0590596667,15.4578706667,407.6,"(0.3401222400000001, 0.0, 0.0, 0.0, 0.627264, 0.0, 0.0, 0.0, 132.7104)",1
2019/07/11/09:00:18.064910,328,1562828418,64778089,map,0,1,47.0590601667,15.4578708333,407.8,"(0.2945232900000001, 0.0, 0.0, 0.0, 0.4489000000000001, 0.0, 0.0, 0.0, 114.91840000000002)",1
2019/07/11/09:00:19.065477,329,1562828419,65237045,map,0,1,47.0590608333,15.4578706667,408.0,"(0.31236920999999995, 0.0, 0.0, 0.0, 0.4760999999999999, 0.0, 0.0, 0.0, 121.88159999999998)",1
2019/07/11/09:00:20.064631,330,1562828420,64455986,map,0,1,47.0590613333,15.45787,408.2,"(0.3047039999999999, 0.0, 0.0, 0.0, 0.4760999999999999, 0.0, 0.0, 0.0, 121.88159999999998)",1
2019/07/11/09:00:21.068405,331,1562828421,68234920,map,0,1,47.0590618333,15.4578693333,408.3,"(0.3047039999999999, 0.0, 0.0, 0.0, 0.4760999999999999, 0.0, 0.0, 0.0, 121.88159999999998)",1
2019/07/11/09:00:22.062295,332,1562828422,62124013,map,0,1,47.0590615,15.4578688333,408.5,"(0.41990400000000017, 0.0, 0.0, 0.0, 0.6561000000000001, 0.0, 0.0, 0.0, 167.96160000000003)",1
2019/07/11/09:00:23.064389,333,1562828423,64265966,map,0,1,47.0590615,15.4578671667,408.6,"(0.36905625000000003, 0.0, 0.0, 0.0, 0.5625, 0.0, 0.0, 0.0, 144.0)",1
2019/07/11/09:00:24.062210,334,1562828424,62046051,map,0,1,47.0590606667,15.4578666667,408.6,"(0.44116164, 0.0, 0.0, 0.0, 0.6561000000000001, 0.0, 0.0, 0.0, 167.96160000000003)",1
2019/07/11/09:00:25.065475,335,1562828425,65346002,map,0,1,47.0590603333,15.4578673333,408.7,"(0.45198729, 0.0, 0.0, 0.0, 0.6561000000000001, 0.0, 0.0, 0.0, 167.96160000000003)",1
2019/07/11/09:00:26.061807,336,1562828426,61625957,map,0,1,47.0590605,15.4578671667,408.8,"(0.37601423999999994, 0.0, 0.0, 0.0, 0.5328999999999999, 0.0, 0.0, 0.0, 136.42239999999998)",1
2019/07/11/09:00:27.065577,337,1562828427,65315961,map,0,1,47.0590605,15.4578675,408.8,"(0.43956900000000004, 0.0, 0.0, 0.0, 0.7361640000000002, 0.0, 0.0, 0.0, 155.7504)",1
2019/07/11/09:00:28.065242,338,1562828428,65099000,map,0,1,47.0590606667,15.4578663333,408.7,"(0.46158436, 0.0, 0.0, 0.0, 0.7551610000000002, 0.0, 0.0, 0.0, 159.76960000000003)",1
2019/07/11/09:00:29.070291,339,1562828429,70171117,map,0,1,47.059061,15.457866,408.6,"(0.47238129, 0.0, 0.0, 0.0, 0.7551610000000002, 0.0, 0.0, 0.0, 159.76960000000003)",1
2019/07/11/09:00:30.064053,340,1562828430,63926935,map,0,1,47.0590615,15.4578656667,408.5,"(0.4833030400000001, 0.0, 0.0, 0.0, 0.7551610000000002, 0.0, 0.0, 0.0, 159.76960000000003)",1
