,Week,GPSTime,Latitude,Longitude,H-Ell,X-ECEF,Y-ECEF,Z-ECEF,VNorth,VEast,VUp,VX-ECEF,VY-ECEF,VZ-ECEF,SD-VX-ECE,SD-VY-ECE,SD-VZ-ECE,Heading,HdngSD,Roll,RollSD,Pitch,PitchSD,SDX-ECEF,SDY-ECEF,SDZ-ECEF,AmbStatus,HDOP,PDOP,VDOP,Easting,Northing,UTC
13099,2061,370509,47.0591225026,15.4586022146,405.441,4195671.792,1160298.783,4646541.706,-0.001,-0.001,0,0.001,-0.001,-0.001,0.001,0.001,0.001,49.5115920972,0.0188289545,-0.351893489,0.0011264037,0.3321894705,0.0011235768,0.005,0.002,0.006,Fixed,0.75,1.02,0.68,534826.992,5211836.249,1562828091
13100,2061,370509.1,47.0591225026,15.4586022146,405.441,4195671.792,1160298.783,4646541.706,-0.001,-0.001,-0.001,0,-0.001,-0.001,0.001,0.001,0.001,49.5114889648,0.018828921,-0.3522831003,0.0011257917,0.3321780113,0.0011229597,0.005,0.002,0.006,Fixed,0.75,1.02,0.68,534826.992,5211836.249,1562828091.1
13101,2061,370509.2,47.0591225026,15.4586022146,405.441,4195671.792,1160298.783,4646541.706,-0.001,-0.001,0,0.001,-0.001,-0.001,0.001,0.001,0.001,49.5116665817,0.0188288894,-0.3522716412,0.0011251786,0.3322926029,0.0011223416,0.005,0.002,0.006,Fixed,0.75,1.02,0.68,534826.992,5211836.249,1562828091.2
13102,2061,370509.3,47.0591225026,15.4586022146,405.441,4195671.792,1160298.783,4646541.706,0,-0.001,0,0,-0.001,0,0.001,0.001,0.001,49.5121364071,0.0188288558,-0.3517903566,0.0011245635,0.332521786,0.0011217213,0.005,0.002,0.006,Fixed,0.75,1.02,0.68,534826.992,5211836.249,1562828091.3
13103,2061,370509.4,47.0591225026,15.4586022146,405.441,4195671.792,1160298.783,4646541.706,0,-0.001,0,0,-0.001,0,0.001,0.001,0.001,49.5120160859,0.018828826,-0.352002351,0.0011239466,0.3324816789,0.0011210993,0.005,0.002,0.006,Fixed,0.75,1.02,0.68,534826.992,5211836.249,1562828091.4
13104,2061,370509.5,47.0591225026,15.4586022146,405.441,4195671.792,1160298.783,4646541.706,0,-0.001,0,0,-0.001,0,0.001,0.001,0.001,49.5117869028,0.0188287925,-0.3522888299,0.0011233287,0.3321894705,0.0011204762,0.005,0.002,0.006,Fixed,0.75,1.02,0.68,534826.992,5211836.249,1562828091.5
13105,2061,370509.6,47.0591225026,15.4586022146,405.441,4195671.792,1160298.783,4646541.706,0,0,0,0,0,0,0.001,0.001,0.001,49.5118155507,0.0188287608,-0.3524664468,0.0011227097,0.3328254536,0.0011198521,0.005,0.002,0.006,Fixed,0.75,1.02,0.68,534826.992,5211836.249,1562828091.6
13106,2061,370509.7,47.0591225026,15.4586022146,405.441,4195671.792,1160298.783,4646541.706,0,0,0,0,0,0,0.001,0.001,0.001,49.5118613873,0.0188287292,-0.3524091511,0.0011220898,0.3329228564,0.001119227,0.005,0.002,0.006,Fixed,0.75,1.02,0.68,534826.992,5211836.249,1562828091.7
13107,2061,370509.8,47.0591225026,15.4586022146,405.441,4195671.792,1160298.783,4646541.706,0,0,0,0,0,0,0.001,0.001,0.001,49.5119530606,0.0188286956,-0.3523805032,0.0011214698,0.3334900847,0.0011186019,0.005,0.002,0.006,Fixed,0.75,1.02,0.68,534826.992,5211836.249,1562828091.8
13108,2061,370509.9,47.0591225026,15.4586022146,405.441,4195671.792,1160298.783,4646541.706,0,0,0,0,0,0,0.001,0.001,0.001,49.5117926324,0.018828664,-0.3527242778,0.0011208497,0.3326249184,0.0011179768,0.005,0.002,0.006,Fixed,0.75,1.02,0.68,534826.992,5211836.249,1562828091.9
13109,2061,370510,47.0591225026,15.4586022146,405.441,4195671.792,1160298.783,4646541.706,0,0,-0.001,-0.001,0,0,0.001,0.001,0.001,49.5117410662,0.0188286323,-0.3526784412,0.0011202289,0.332521786,0.0011173509,0.005,0.002,0.006,Fixed,0.75,1.02,0.68,534826.992,5211836.249,1562828092
13110,2061,370510.1,47.0591225026,15.4586022146,405.441,4195671.792,1160298.783,4646541.706,0.001,0.001,0,-0.001,0,0,0.001,0.001,0.001,49.5117181479,0.0188286006,-0.3528216807,0.001119607,0.3326592959,0.001116724,0.005,0.002,0.006,Fixed,0.75,1.02,0.68,534826.992,5211836.249,1562828092.1
13111,2061,370510.2,47.0591225026,15.4586022146,405.441,4195671.792,1160298.783,4646541.706,0.001,0.001,0,-0.001,0.001,0,0.001,0.001,0.001,49.5114488577,0.0188285671,-0.3527414666,0.0011189842,0.3325447043,0.0011160962,0.005,0.002,0.006,Fixed,0.75,1.02,0.68,534826.992,5211836.249,1562828092.2
13112,2061,370510.3,47.0591225026,15.4586022146,405.441,4195671.792,1160298.783,4646541.706,0.001,0.001,0,-0.001,0.001,0.001,0.001,0.001,0.001,49.5116150155,0.0188285355,-0.3528503286,0.0011183595,0.3333583044,0.0011154665,0.005,0.002,0.006,Fixed,0.75,1.02,0.68,534826.992,5211836.249,1562828092.3
13113,2061,370510.4,47.0591225026,15.4586022146,405.441,4195671.792,1160298.783,4646541.706,0.001,0.001,0,-0.001,0.001,0.001,0.001,0.001,0.001,49.5115462605,0.0188285019,-0.352735737,0.0011177331,0.3327509691,0.0011148348,0.005,0.002,0.006,Fixed,0.75,1.02,0.68,534826.992,5211836.249,1562828092.4
13114,2061,370510.5,47.0591225026,15.4586022146,405.441,4195671.792,1160298.783,4646541.706,0.001,0.001,0,-0.001,0.001,0.001,0.001,0.001,0.001,49.5117697141,0.0188284721,-0.3526727116,0.0011171055,0.332412924,0.0011142023,0.005,0.002,0.006,Fixed,0.75,1.02,0.68,534826.992,5211836.249,1562828092.5
13115,2061,370510.6,47.0591225026,15.4586022146,405.441,4195671.792,1160298.783,4646541.706,0.001,0.001,0,-0.001,0.001,0.001,0.001,0.001,0.001,49.5117009591,0.0188284386,-0.352844599,0.0011164771,0.3321894705,0.0011135688,0.005,0.002,0.006,Fixed,0.75,1.02,0.68,534826.992,5211836.249,1562828092.6
13116,2061,370510.7,47.0591225026,15.4586022146,405.441,4195671.792,1160298.783,4646541.706,0.001,0.001,0,-0.001,0.001,0.001,0.001,0.001,0.001,49.5115691789,0.0188284069,-0.3528904356,0.0011158477,0.3322181184,0.0011129343,0.005,0.002,0.006,Fixed,0.75,1.02,0.68,534826.992,5211836.249,1562828092.7
13117,2061,370510.8,47.0591225026,15.4586022146,405.441,4195671.792,1160298.783,4646541.706,0.001,0.001,0,-0.001,0.001,0.001,0.001,0.001,0.001,49.5112712408,0.0188283734,-0.3524492581,0.0011152185,0.3327395099,0.0011123,0.005,0.002,0.006,Fixed,0.75,1.02,0.68,534826.992,5211836.249,1562828092.8
13118,2061,370510.9,47.0591225026,15.4586022146,405.441,4195671.792,1160298.783,4646541.706,0.001,0.002,0,-0.001,0.001,0.001,0.001,0.001,0.001,49.5112024859,0.0188283436,-0.3527643849,0.001114589,0.3323384395,0.0011116657,0.005,0.002,0.006,Fixed,0.75,1.02,0.68,534826.992,5211836.249,1562828092.9
13119,2061,370511,47.0591225026,15.4586022146,405.441,4195671.792,1160298.783,4646541.706,0.001,0.002,0,-0.001,0.001,0.001,0.001,0.001,0.001,49.5116264746,0.0188283101,-0.3529992976,0.0011139589,0.3322754141,0.0011110305,0.005,0.002,0.006,Fixed,0.75,1.02,0.68,534826.992,5211836.249,1562828093
13120,2061,370511.1,47.0591225026,15.4586022146,405.441,4195671.792,1160298.783,4646541.706,0.001,0.002,0,-0.001,0.001,0.001,0.001,0.001,0.001,49.5116551225,0.0188282784,-0.3529878384,0.0011133277,0.3323384395,0.0011103944,0.005,0.002,0.006,Fixed,0.75,1.02,0.68,534826.992,5211836.249,1562828093.1
13121,2061,370511.2,47.0591225026,15.4586022146,405.441,4195671.792,1160298.783,4646541.706,0.001,0.001,0,-0.001,0.001,0.001,0.001,0.001,0.001,49.5110535168,0.0188282449,-0.3531310779,0.0011126957,0.3326191888,0.0011097573,0.005,0.002,0.006,Fixed,0.75,1.02,0.68,534826.992,5211836.249,1562828093.2
13122,2061,370511.3,47.0591225026,15.4586022146,405.441,4195671.792,1160298.783,4646541.706,0.001,0.001,0,-0.001,0.001,0.001,0.001,0.001,0.001,49.5111795676,0.0188282151,-0.3528216807,0.0011120618,0.3326249184,0.0011091185,0.005,0.002,0.006,Fixed,0.75,1.02,0.68,534826.992,5211836.249,1562828093.3
13123,2061,370511.4,47.0591225026,15.4586022146,405.441,4195671.792,1160298.783,4646541.706,0.001,0.001,0,-0.001,0.001,0,0.001,0.001,0.001,49.510956114,0.0188281815,-0.3529878384,0.001111426,0.3324473015,0.0011084777,0.005,0.002,0.006,Fixed,0.75,1.02,0.68,534826.992,5211836.249,1562828093.4
13124,2061,370511.5,47.0591225026,15.4586022146,405.441,4195671.792,1160298.783,4646541.706,0.001,0.001,0,-0.001,0.001,0,0.001,0.001,0.001,49.5110535168,0.0188281499,-0.3527013595,0.0011107894,0.332561893,0.0011078361,0.005,0.002,0.006,Fixed,0.75,1.02,0.68,534826.992,5211836.249,1562828093.5
13125,2061,370511.6,47.0591225026,15.4586022146,405.441,4195671.792,1160298.783,4646541.706,0.001,0.001,0,-0.001,0.001,0.001,0.001,0.001,0.001,49.5107326605,0.0188281182,-0.3525695792,0.0011101519,0.3323785465,0.0011071935,0.005,0.002,0.006,Fixed,0.75,1.02,0.68,534826.992,5211836.249,1562828093.6
13126,2061,370511.7,47.0591225026,15.4586022146,405.441,4195671.792,1160298.783,4646541.706,0.001,0.001,0,-0.001,0.001,0,0.001,0.001,0.001,49.5105836914,0.0188280847,-0.3525695792,0.0011095133,0.3323613578,0.00110655,0.005,0.002,0.006,Fixed,0.75,1.02,0.68,534826.992,5211836.249,1562828093.7
13127,2061,370511.8,47.0591225026,15.4586022146,405.441,4195671.792,1160298.783,4646541.706,0.001,0.001,0,-0.001,0.001,0,0.001,0.001,0.001,49.5105607731,0.018828053,-0.352328937,0.0011088748,0.3326994029,0.0011059066,0.005,0.002,0.006,Fixed,0.75,1.02,0.68,534826.992,5211836.249,1562828093.8
13128,2061,370511.9,47.0591225026,15.4586022146,405.441,4195671.792,1160298.783,4646541.706,0,0.001,0,-0.001,0.001,0,0.001,0.001,0.001,49.5104862886,0.0188280214,-0.3528789764,0.0011082361,0.3324644902,0.0011052631,0.005,0.002,0.006,Fixed,0.75,1.02,0.68,534826.992,5211836.249,1562828093.9
13129,2061,370512,47.0591225026,15.4586022146,405.441,4195671.792,1160298.783,4646541.706,0,0,0,0,0,0,0.001,0.001,0.001,49.5103144013,0.0188279897,-0.3529076243,0.0011075967,0.3325962705,0.0011046188,0.005,0.002,0.006,Fixed,0.75,1.02,0.68,534826.992,5211836.249,1562828094
13130,2061,370512.1,47.0591225026,15.4586022146,405.441,4195671.792,1160298.783,4646541.706,0,0,0,0,0,0,0.001,0.001,0.001,49.5103144013,0.0188279562,-0.3524950947,0.0011069562,0.3321379043,0.0011039735,0.005,0.002,0.006,Fixed,0.75,1.02,0.68,534826.992,5211836.249,1562828094.1
13131,2061,370512.2,47.0591225026,15.4586022146,405.441,4195671.792,1160298.783,4646541.706,0,0,0,0,0,0,0.001,0.001,0.001,49.5102456464,0.0188279245,-0.3526727116,0.0011063149,0.3319717465,0.0011033274,0.005,0.002,0.006,Fixed,0.75,1.02,0.68,534826.992,5211836.249,1562828094.2
13132,2061,370512.3,47.0591225026,15.4586022146,405.441,4195671.792,1160298.783,4646541.706,0,0,0,0,0,-0.001,0.001,0.001,0.001,49.510033652,0.0188278928,-0.3523862327,0.0011056717,0.3320405014,0.0011026792,0.005,0.002,0.006,Fixed,0.75,1.02,0.68,534826.992,5211836.249,1562828094.3
13133,2061,370512.4,47.0591225026,15.4586022146,405.441,4195671.792,1160298.783,4646541.706,-0.001,-0.001,0,0,-0.001,-0.001,0.001,0.001,0.001,49.5102456464,0.0188278612,-0.3523002891,0.0011050267,0.3322066592,0.0011020292,0.005,0.002,0.006,Fixed,0.75,1.02,0.68,534826.992,5211836.249,1562828094.4
13134,2061,370512.5,47.0591225026,15.4586022146,405.441,4195671.792,1160298.783,4646541.706,-0.001,-0.001,0,0.001,-0.001,-0.001,0.001,0.001,0.001,49.5101425139,0.0188278276,-0.3524377989,0.0011043807,0.3321436338,0.0011013784,0.005,0.002,0.006,Fixed,0.75,1.02,0.68,534826.992,5211836.249,1562828094.5
13135,2061,370512.6,47.0591225026,15.4586022146,405.441,4195671.792,1160298.783,4646541.706,-0.001,-0.001,0,0.001,-0.001,-0.001,0.001,0.001,0.001,49.5103430492,0.018827796,-0.3526784412,0.0011037345,0.3320519606,0.0011007274,0.005,0.002,0.006,Fixed,0.75,1.02,0.68,534826.992,5211836.249,1562828094.6
13136,2061,370512.7,47.0591225026,15.4586022146,405.441,4195671.792,1160298.783,4646541.706,-0.001,-0.002,0,0.001,-0.001,-0.001,0.001,0.001,0.001,49.5101768914,0.0188277643,-0.3522487229,0.0011030883,0.3317654817,0.0011000764,0.005,0.002,0.006,Fixed,0.75,1.02,0.68,534826.992,5211836.249,1562828094.7
13137,2061,370512.8,47.0591225026,15.4586022146,405.441,4195671.792,1160298.783,4646541.706,-0.002,-0.002,-0.001,0.001,-0.002,-0.002,0.001,0.001,0.001,49.50992479,0.0188277327,-0.3522888299,0.0011024419,0.3321722817,0.0010994255,0.005,0.002,0.006,Fixed,0.74,0.99,0.66,534826.992,5211836.249,1562828094.8
13138,2061,370512.9,47.0591225026,15.4586022146,405.441,4195671.792,1160298.783,4646541.706,-0.002,-0.002,-0.001,0.001,-0.002,-0.002,0.001,0.001,0.001,49.5097471731,0.0188276991,-0.3525523905,0.0011017957,0.3323269803,0.0010987746,0.005,0.002,0.006,Fixed,0.75,1.02,0.68,534826.992,5211836.249,1562828094.9
13139,2061,370513,47.0591225026,15.4586022146,405.441,4195671.792,1160298.783,4646541.706,-0.002,-0.002,-0.001,0.002,-0.002,-0.002,0.001,0.001,0.001,49.5101940801,0.0188276675,-0.352518013,0.0011011485,0.3320519606,0.0010981227,0.005,0.002,0.006,Fixed,0.75,1.02,0.68,534826.992,5211836.249,1562828095
13140,2061,370513.1,47.0591225026,15.4586022146,405.441,4195671.792,1160298.783,4646541.706,-0.002,-0.002,0,0.002,-0.002,-0.002,0.001,0.001,0.001,49.510400345,0.0188276358,-0.3524034215,0.0011004993,0.3320405014,0.0010974689,0.005,0.002,0.006,Fixed,0.75,1.02,0.68,534826.992,5211836.249,1562828095.1
13141,2061,370513.2,47.0591225026,15.4586022146,405.441,4195671.792,1160298.783,4646541.706,-0.002,-0.002,-0.001,0.002,-0.002,-0.002,0.001,0.001,0.001,49.5106008802,0.0188276041,-0.3523232074,0.0010998482,0.3316165127,0.001096813,0.005,0.002,0.006,Fixed,0.75,1.02,0.68,534826.992,5211836.249,1562828095.2
13142,2061,370513.3,47.0591225026,15.4586022146,405.441,4195671.792,1160298.783,4646541.706,-0.002,-0.003,-0.001,0.001,-0.002,-0.002,0.001,0.001,0.001,49.5102800238,0.0188275725,-0.3522773708,0.001099195,0.3315592169,0.0010961551,0.005,0.002,0.006,Fixed,0.75,1.02,0.68,534826.992,5211836.249,1562828095.3
13143,2061,370513.4,47.0591225026,15.4586022146,405.441,4195671.792,1160298.783,4646541.706,-0.002,-0.002,-0.001,0.002,-0.002,-0.002,0.001,0.001,0.001,49.5101539731,0.0188275389,-0.3522258046,0.0010985397,0.3319316395,0.0010954951,0.005,0.002,0.006,Fixed,0.75,1.02,0.68,534826.992,5211836.249,1562828095.4
13144,2061,370513.5,47.0591225026,15.4586022146,405.441,4195671.792,1160298.783,4646541.706,-0.002,-0.003,-0.001,0.002,-0.002,-0.002,0.001,0.001,0.001,49.5107212013,0.0188275073,-0.3521685088,0.0010978832,0.3321379043,0.0010948339,0.005,0.002,0.006,Fixed,0.75,1.02,0.68,534826.992,5211836.249,1562828095.5
13145,2061,370513.6,47.0591225026,15.4586022146,405.441,4195671.792,1160298.783,4646541.706,-0.002,-0.003,-0.001,0.002,-0.002,-0.002,0.001,0.001,0.001,49.5107326605,0.0188274737,-0.3526841708,0.0010972258,0.3318800733,0.0010941717,0.005,0.002,0.006,Fixed,0.75,1.02,0.68,534826.992,5211836.249,1562828095.6
13146,2061,370513.7,47.0591225026,15.4586022146,405.441,4195671.792,1160298.783,4646541.706,-0.002,-0.003,-0.001,0.002,-0.002,-0.002,0.001,0.001,0.001,49.511105083,0.0188274421,-0.3522258046,0.0010965671,0.3314961915,0.0010935082,0.005,0.002,0.006,Fixed,0.75,1.02,0.68,534826.992,5211836.249,1562828095.7
13147,2061,370513.8,47.0591225026,15.4586022146,405.441,4195671.792,1160298.783,4646541.706,-0.002,-0.003,-0.001,0.002,-0.002,-0.002,0.001,0.001,0.001,49.510589421,0.0188274104,-0.3520195398,0.0010959083,0.3316451606,0.0010928448,0.005,0.002,0.006,Fixed,0.75,1.02,0.68,534826.992,5211836.249,1562828095.8
13148,2061,370513.9,47.0591225026,15.4586022146,405.441,4195671.792,1160298.783,4646541.706,-0.002,-0.003,0,0.002,-0.002,-0.001,0.001,0.001,0.001,49.5110764352,0.0188273787,-0.3521284017,0.0010952493,0.3320576902,0.0010921812,0.005,0.002,0.006,Fixed,0.75,1.02,0.68,534826.992,5211836.249,1562828095.9
13149,2061,370514,47.0591225026,15.4586022146,405.441,4195671.792,1160298.783,4646541.706,-0.002,-0.003,0,0.002,-0.002,-0.002,0.001,0.001,0.001,49.5111222718,0.0188273452,-0.3522429933,0.0010945894,0.3322868733,0.0010915167,0.005,0.002,0.006,Fixed,0.75,1.02,0.68,534826.992,5211836.249,1562828096
13150,2061,370514.1,47.0591225026,15.4586022146,405.441,4195671.792,1160298.783,4646541.706,-0.002,-0.003,-0.001,0.001,-0.002,-0.001,0.001,0.001,0.001,49.5111451901,0.0188273136,-0.3520195398,0.0010939282,0.3323384395,0.001090851,0.005,0.002,0.006,Fixed,0.75,1.02,0.68,534826.992,5211836.249,1562828096.1
13151,2061,370514.2,47.0591225026,15.4586022146,405.441,4195671.792,1160298.783,4646541.706,-0.002,-0.003,-0.001,0.001,-0.002,-0.002,0.001,0.001,0.001,49.5115176127,0.0188272819,-0.3523518553,0.0010932662,0.331897262,0.0010901843,0.005,0.002,0.006,Fixed,0.75,1.02,0.68,534826.992,5211836.249,1562828096.2
13152,2061,370514.3,47.0591225026,15.4586022146,405.441,4195671.792,1160298.783,4646541.706,-0.001,-0.002,0,0.001,-0.002,-0.001,0.001,0.001,0.001,49.5114832352,0.0188272502,-0.3523002891,0.0010926018,0.3319316395,0.0010895154,0.005,0.002,0.006,Fixed,0.75,1.02,0.68,534826.992,5211836.249,1562828096.3
13153,2061,370514.4,47.0591225026,15.4586022146,405.441,4195671.792,1160298.783,4646541.706,-0.001,-0.002,0,0.001,-0.002,-0.001,0.001,0.001,0.001,49.5115290718,0.0188272167,-0.3519164073,0.0010919354,0.3318170479,0.0010888445,0.005,0.002,0.006,Fixed,0.75,1.02,0.68,534826.992,5211836.249,1562828096.4
13154,2061,370514.5,47.0591225026,15.4586022146,405.441,4195671.792,1160298.783,4646541.706,-0.001,-0.002,0,0.001,-0.002,-0.001,0.001,0.001,0.001,49.5117009591,0.018827185,-0.3519278665,0.0010912678,0.3319545578,0.0010881723,0.005,0.002,0.006,Fixed,0.75,1.02,0.68,534826.992,5211836.249,1562828096.5
13155,2061,370514.6,47.0591225026,15.4586022146,405.441,4195671.792,1160298.783,4646541.706,-0.001,-0.002,0,0.001,-0.002,-0.001,0.001,0.001,0.001,49.5115061535,0.0188271534,-0.3519221369,0.0010905992,0.3319144507,0.0010874991,0.005,0.002,0.006,Fixed,0.75,1.02,0.68,534826.992,5211836.249,1562828096.6
13156,2061,370514.7,47.0591225026,15.4586022146,405.441,4195671.792,1160298.783,4646541.706,-0.001,-0.002,0,0.001,-0.001,-0.001,0.001,0.001,0.001,49.5114889648,0.0188271217,-0.3518419228,0.0010899294,0.331272738,0.0010868248,0.005,0.002,0.006,Fixed,0.75,1.02,0.68,534826.992,5211836.249,1562828096.7
13157,2061,370514.8,47.0591225026,15.4586022146,405.441,4195671.792,1160298.783,4646541.706,-0.001,-0.001,0,0.001,-0.001,-0.001,0.001,0.001,0.001,49.5118098211,0.0188270882,-0.3520309989,0.0010892594,0.3313472225,0.0010861503,0.005,0.002,0.006,Fixed,0.75,1.02,0.68,534826.992,5211836.249,1562828096.8
13158,2061,370514.9,47.0591225026,15.4586022146,405.441,4195671.792,1160298.783,4646541.706,0,-0.001,0,0,-0.001,0,0.001,0.001,0.001,49.5116322042,0.0188270565,-0.3519278665,0.0010885892,0.3310206366,0.0010854758,0.005,0.002,0.006,Fixed,0.75,1.02,0.68,534826.992,5211836.249,1562828096.9
13159,2061,370515,47.0591225026,15.4586022146,405.441,4195671.792,1160298.783,4646541.706,0,-0.001,0,0,-0.001,0,0.001,0.001,0.001,49.5116608521,0.0188270248,-0.35174452,0.0010879178,0.3312269014,0.0010848001,0.005,0.002,0.006,Fixed,0.75,1.02,0.68,534826.992,5211836.249,1562828097
13160,2061,370515.1,47.0591225026,15.4586022146,405.441,4195671.792,1160298.783,4646541.706,0,-0.001,-0.001,0,-0.001,0,0.001,0.001,0.001,49.5114832352,0.0188269932,-0.3518591116,0.0010872454,0.3318285071,0.0010841233,0.005,0.002,0.006,Fixed,0.75,1.02,0.68,534826.992,5211836.249,1562828097.1
13161,2061,370515.2,47.0591225026,15.4586022146,405.441,4195671.792,1160298.783,4646541.706,0,-0.001,0,0,-0.001,0,0.001,0.001,0.001,49.5119301423,0.0188269615,-0.3517158721,0.0010865717,0.331490462,0.0010834453,0.005,0.002,0.006,Fixed,0.75,1.02,0.68,534826.992,5211836.249,1562828097.2
13162,2061,370515.3,47.0591225026,15.4586022146,405.441,4195671.792,1160298.783,4646541.706,0,-0.001,0,0,-0.001,0,0.001,0.001,0.001,49.5115863676,0.018826928,-0.3514236636,0.0010858959,0.3314446253,0.0010827652,0.005,0.002,0.006,Fixed,0.75,1.02,0.68,534826.992,5211836.249,1562828097.3
13163,2061,370515.4,47.0591225026,15.4586022146,405.441,4195671.792,1160298.783,4646541.706,0.001,0,0,0,0,0,0.001,0.001,0.001,49.5115118831,0.0188268963,-0.3516872242,0.001085218,0.3313071155,0.0010820829,0.005,0.002,0.006,Fixed,0.75,1.02,0.68,534826.992,5211836.249,1562828097.4
13164,2061,370515.5,47.0591225026,15.4586022146,405.441,4195671.792,1160298.783,4646541.706,0.001,0,0,-0.001,0,0,0.001,0.001,0.001,49.5114202098,0.0188268628,-0.3515096073,0.0010845389,0.3311123098,0.0010813995,0.005,0.002,0.006,Fixed,0.75,1.02,0.68,534826.992,5211836.249,1562828097.5
13165,2061,370515.6,47.0591225026,15.4586022146,405.441,4195671.792,1160298.783,4646541.706,0.001,0,0,-0.001,0,0,0.001,0.001,0.001,49.5113972915,0.018826833,-0.351635658,0.0010838587,0.3317712113,0.0010807149,0.005,0.002,0.006,Fixed,0.75,1.02,0.68,534826.992,5211836.249,1562828097.6
13166,2061,370515.7,47.0591225026,15.4586022146,405.441,4195671.792,1160298.783,4646541.706,0.001,0,0,-0.001,0,0.001,0.001,0.001,0.001,49.5116895,0.0188267995,-0.3516700355,0.0010831772,0.331679538,0.0010800292,0.005,0.002,0.006,Fixed,0.75,1.02,0.68,534826.992,5211836.249,1562828097.7
13167,2061,370515.8,47.0591225026,15.4586022146,405.441,4195671.792,1160298.783,4646541.706,0.001,0,0,-0.001,0,0.001,0.001,0.001,0.001,49.5121364071,0.0188267678,-0.3516757651,0.0010824954,0.3313644112,0.001079343,0.005,0.002,0.006,Fixed,0.75,1.02,0.68,534826.992,5211836.249,1562828097.8
13168,2061,370515.9,47.0591225026,15.4586022146,405.441,4195671.792,1160298.783,4646541.706,0.001,0.001,0,-0.001,0,0.001,0.001,0.001,0.001,49.5122166212,0.0188267343,-0.351526796,0.0010818132,0.3310722028,0.0010786569,0.005,0.002,0.006,Fixed,0.75,1.02,0.68,534826.992,5211836.249,1562828097.9
13169,2061,370516,47.0591225026,15.4586022146,405.441,4195671.792,1160298.783,4646541.706,0.001,0.001,0,-0.001,0,0.001,0.001,0.001,0.001,49.5122567282,0.0188267026,-0.3520882947,0.0010811299,0.3314331662,0.0010779694,0.005,0.002,0.006,Fixed,0.75,1.02,0.68,534826.992,5211836.249,1562828098
13170,2061,370516.1,47.0591225026,15.4586022146,405.441,4195671.792,1160298.783,4646541.706,0.002,0.001,0,-0.002,0.001,0.001,0.001,0.001,0.001,49.5120046268,0.0188266691,-0.3515840918,0.0010804455,0.3317081859,0.001077281,0.005,0.002,0.006,Fixed,0.75,1.02,0.68,534826.992,5211836.249,1562828098.1
13171,2061,370516.2,47.0591225026,15.4586022146,405.441,4195671.792,1160298.783,4646541.706,0.002,0.001,0,-0.002,0.001,0.001,0.001,0.001,0.001,49.5123082944,0.0188266393,-0.3516241989,0.0010797597,0.3315878648,0.0010765912,0.005,0.002,0.006,Fixed,0.75,1.02,0.68,534826.992,5211836.249,1562828098.2
13172,2061,370516.3,47.0591225026,15.4586022146,405.441,4195671.792,1160298.783,4646541.706,0.002,0.001,0,-0.002,0.001,0.001,0.001,0.001,0.001,49.5119416014,0.0188266058,-0.3518877595,0.0010790719,0.3314446253,0.0010758992,0.005,0.002,0.006,Fixed,0.75,1.02,0.68,534826.992,5211836.249,1562828098.3
13173,2061,370516.4,47.0591225026,15.4586022146,405.441,4195671.792,1160298.783,4646541.706,0.002,0.002,0,-0.002,0.001,0.001,0.001,0.001,0.001,49.5119817085,0.0188265741,-0.3519966214,0.0010783817,0.3314045183,0.001075205,0.005,0.002,0.006,Fixed,0.75,1.02,0.68,534826.992,5211836.249,1562828098.4
13174,2061,370516.5,47.0591225026,15.4586022146,405.441,4195671.792,1160298.783,4646541.706,0.002,0.002,0,-0.002,0.001,0.001,0.001,0.001,0.001,49.5126864466,0.0188265406,-0.3519794327,0.0010776903,0.3313930591,0.0010745095,0.005,0.002,0.006,Fixed,0.75,1.02,0.68,534826.992,5211836.249,1562828098.5
13175,2061,370516.6,47.0591225026,15.4586022146,405.441,4195671.792,1160298.783,4646541.706,0.003,0.002,0,-0.002,0.002,0.002,0.001,0.001,0.001,49.511987438,0.0188265089,-0.3522659116,0.0010769976,0.331421707,0.0010738128,0.005,0.002,0.006,Fixed,0.75,1.02,0.68,534826.992,5211836.249,1562828098.6
13176,2061,370516.7,47.0591225026,15.4586022146,405.441,4195671.792,1160298.783,4646541.706,0.003,0.002,0,-0.003,0.002,0.002,0.001,0.001,0.001,49.5120160859,0.0188264772,-0.3519908919,0.0010763035,0.3313013859,0.0010731148,0.005,0.002,0.006,Fixed,0.75,1.02,0.68,534826.992,5211836.249,1562828098.7
13177,2061,370516.8,47.0591225026,15.4586022146,405.441,4195671.792,1160298.783,4646541.706,0.003,0.002,0,-0.003,0.002,0.002,0.001,0.001,0.001,49.5119645197,0.0188264456,-0.3519278665,0.0010756091,0.3314732732,0.0010724163,0.005,0.002,0.006,Fixed,0.75,1.02,0.68,534826.992,5211836.249,1562828098.8
13178,2061,370516.9,47.0591225026,15.4586022146,405.441,4195671.792,1160298.783,4646541.706,0.003,0.003,0,-0.003,0.002,0.002,0.001,0.001,0.001,49.5124458043,0.0188264139,-0.3519507848,0.0010749142,0.3310034478,0.0010717178,0.005,0.002,0.006,Fixed,0.75,1.02,0.68,534826.992,5211836.249,1562828098.9
13179,2061,370517,47.0591225026,15.4586022146,405.441,4195671.792,1160298.783,4646541.706,0.003,0.003,0,-0.003,0.002,0.002,0.001,0.001,0.001,49.5127666606,0.0188263804,-0.3518304637,0.0010742182,0.3303445464,0.0010710178,0.005,0.002,0.006,Fixed,0.75,1.02,0.68,534826.992,5211836.249,1562828099
13180,2061,370517.1,47.0591225026,15.4586022146,405.441,4195671.792,1160298.783,4646541.706,0.003,0.003,0,-0.003,0.002,0.002,0.001,0.001,0.001,49.5123484015,0.0188263487,-0.3521856975,0.0010735206,0.3306596731,0.0010703165,0.005,0.002,0.006,Fixed,0.75,1.02,0.68,534826.992,5211836.249,1562828099.1
13181,2061,370517.2,47.0591225026,15.4586022146,405.441,4195671.792,1160298.783,4646541.706,0.003,0.003,0,-0.003,0.002,0.002,0.001,0.001,0.001,49.5119988972,0.0188263152,-0.3516814947,0.0010728219,0.3307914534,0.0010696141,0.005,0.002,0.006,Fixed,0.75,1.02,0.68,534826.992,5211836.249,1562828099.2
13182,2061,370517.3,47.0591225026,15.4586022146,405.441,4195671.792,1160298.783,4646541.706,0.003,0.003,0,-0.003,0.002,0.002,0.001,0.001,0.001,49.5119817085,0.0188262854,-0.3515783622,0.0010721217,0.3307914534,0.0010689101,0.005,0.002,0.006,Fixed,0.75,1.02,0.68,534826.992,5211836.249,1562828099.3
13183,2061,370517.4,47.0591225026,15.4586022146,405.441,4195671.792,1160298.783,4646541.706,0.003,0.003,0,-0.003,0.002,0.002,0.001,0.001,0.001,49.5122509986,0.0188262518,-0.3516643059,0.00107142,0.3307055098,0.001068205,0.005,0.002,0.006,Fixed,0.75,1.02,0.68,534826.992,5211836.249,1562828099.4
13184,2061,370517.5,47.0591225026,15.4586022146,405.441,4195671.792,1160298.783,4646541.706,0.003,0.003,0,-0.003,0.002,0.002,0.001,0.001,0.001,49.5122567282,0.0188262202,-0.351635658,0.0010707172,0.3301611999,0.0010674985,0.005,0.002,0.006,Fixed,0.74,0.99,0.66,534826.992,5211836.249,1562828099.5
13185,2061,370517.6,47.0591225026,15.4586022146,405.441,4195671.792,1160298.783,4646541.706,0.003,0.003,0,-0.003,0.002,0.002,0.001,0.001,0.001,49.5120046268,0.0188261867,-0.3519335961,0.0010700127,0.3305450816,0.0010667907,0.005,0.002,0.006,Fixed,0.75,1.02,0.68,534826.992,5211836.249,1562828099.6
13186,2061,370517.7,47.0591225026,15.4586022146,405.441,4195671.792,1160298.783,4646541.706,0.003,0.003,0,-0.003,0.002,0.002,0.001,0.001,0.001,49.5115118831,0.0188261569,-0.3518361933,0.001069307,0.3304877858,0.0010660813,0.005,0.002,0.006,Fixed,0.75,1.02,0.68,534826.992,5211836.249,1562828099.7
13187,2061,370517.8,47.0591225026,15.4586022146,405.441,4195671.792,1160298.783,4646541.706,0.003,0.003,0,-0.003,0.002,0.001,0.001,0.001,0.001,49.5114660465,0.0188261233,-0.3518705707,0.0010685996,0.3301153632,0.0010653705,0.005,0.002,0.006,Fixed,0.75,1.02,0.68,534826.992,5211836.249,1562828099.8
13188,2061,370517.9,47.0591225026,15.4586022146,405.441,4195671.792,1160298.783,4646541.706,0.003,0.003,0,-0.003,0.002,0.001,0.001,0.001,0.001,49.5113342662,0.0188260917,-0.3515669031,0.0010678909,0.3302757914,0.0010646584,0.005,0.002,0.006,Fixed,0.75,1.02,0.68,534826.992,5211836.249,1562828099.9
13189,2061,370518,47.0591225026,15.4586022146,405.441,4195671.792,1160298.783,4646541.706,0.002,0.003,0,-0.003,0.002,0.002,0.001,0.001,0.001,49.5114603169,0.0188260581,-0.3517330609,0.0010671808,0.3303961126,0.0010639449,0.005,0.002,0.006,Fixed,0.75,1.02,0.68,534826.992,5211836.249,1562828100
13190,2061,370518.1,47.0591225026,15.4586022146,405.441,4195671.792,1160298.783,4646541.706,0.002,0.003,0,-0.002,0.002,0.002,0.001,0.001,0.001,49.511173838,0.0188260283,-0.3514523115,0.0010664691,0.3301039041,0.0010632299,0.005,0.002,0.006,Fixed,0.75,1.02,0.68,534826.992,5211836.249,1562828100.1
13191,2061,370518.2,47.0591225026,15.4586022146,405.441,4195671.792,1160298.783,4646541.706,0.002,0.002,0,-0.002,0.002,0.001,0.001,0.001,0.001,49.5107383901,0.0188259948,-0.3517502496,0.0010657558,0.3299721238,0.0010625133,0.005,0.002,0.006,Fixed,0.75,1.02,0.68,534826.992,5211836.249,1562828100.2
13192,2061,370518.3,47.0591225026,15.4586022146,405.441,4195671.792,1160298.783,4646541.706,0.002,0.002,0,-0.002,0.002,0.001,0.001,0.001,0.001,49.5102685647,0.0188259631,-0.3517846271,0.0010650402,0.3298976393,0.0010617943,0.005,0.002,0.006,Fixed,0.75,1.02,0.68,534826.992,5211836.249,1562828100.3
13193,2061,370518.4,47.0591225026,15.4586022146,405.441,4195671.792,1160298.783,4646541.706,0.002,0.002,-0.001,-0.002,0.002,0.001,0.001,0.001,0.001,49.5103144013,0.0188259296,-0.3516872242,0.0010643221,0.3302242252,0.0010610728,0.005,0.002,0.006,Fixed,0.75,1.02,0.68,534826.992,5211836.249,1562828100.4
13194,2061,370518.5,47.0591225026,15.4586022146,405.441,4195671.792,1160298.783,4646541.706,0.002,0.002,0,-0.002,0.002,0.001,0.001,0.001,0.001,49.5105435844,0.0188258998,-0.3516070101,0.0010636022,0.3301841182,0.0010603498,0.005,0.002,0.006,Fixed,0.75,1.02,0.68,534826.992,5211836.249,1562828100.5
13195,2061,370518.6,47.0591225026,15.4586022146,405.441,4195671.792,1160298.783,4646541.706,0.002,0.002,0,-0.002,0.001,0.001,0.001,0.001,0.001,49.5104232633,0.0188258663,-0.3513033425,0.0010628809,0.3298116956,0.0010596252,0.005,0.002,0.006,Fixed,0.75,1.02,0.68,534826.992,5211836.249,1562828100.6
13196,2061,370518.7,47.0591225026,15.4586022146,405.441,4195671.792,1160298.783,4646541.706,0.002,0.002,0,-0.002,0.001,0.001,0.001,0.001,0.001,49.5100279224,0.0188258346,-0.3513950158,0.0010621579,0.3295595942,0.0010588991,0.005,0.002,0.006,Fixed,0.75,1.02,0.68,534826.992,5211836.249,1562828100.7
13197,2061,370518.8,47.0591225026,15.4586022146,405.441,4195671.792,1160298.783,4646541.706,0.001,0.001,-0.001,-0.002,0.001,0,0.001,0.001,0.001,49.5102456464,0.0188258011,-0.3511715622,0.0010614344,0.329914828,0.0010581724,0.005,0.002,0.006,Fixed,0.75,1.02,0.68,534826.992,5211836.249,1562828100.8
13198,2061,370518.9,47.0591225026,15.4586022146,405.441,4195671.792,1160298.783,4646541.706,0.001,0.001,0,-0.001,0.001,0,0.001,0.001,0.001,49.5100279224,0.0188257694,-0.3513835566,0.0010607103,0.3297142928,0.0010574453,0.005,0.002,0.006,Fixed,0.75,1.02,0.68,534826.992,5211836.249,1562828100.9
13199,2061,370519,47.0591225026,15.4586022146,405.441,4195671.792,1160298.783,4646541.706,0.001,0.001,0,-0.001,0.001,0.001,0.001,0.001,0.001,49.50992479,0.0188257378,-0.3512059397,0.0010599846,0.3300179604,0.0010567168,0.005,0.002,0.006,Fixed,0.75,1.02,0.68,534826.992,5211836.249,1562828101
13200,2061,370519.1,47.0591225026,15.4586022146,405.441,4195671.792,1160298.783,4646541.706,0.001,0.001,0,-0.001,0,0,0.001,0.001,0.001,49.5102284576,0.0188257061,-0.3512460467,0.0010592572,0.3297257519,0.0010559865,0.005,0.002,0.006,Fixed,0.75,1.02,0.68,534826.992,5211836.249,1562828101.1
13201,2061,370519.2,47.0591225026,15.4586022146,405.441,4195671.792,1160298.783,4646541.706,0.001,0.001,-0.001,-0.001,0,0,0.001,0.001,0.001,49.5104748295,0.0188256726,-0.3514637707,0.0010585283,0.3301497407,0.001055255,0.005,0.002,0.006,Fixed,0.75,1.02,0.68,534826.992,5211836.249,1562828101.2
13202,2061,370519.3,47.0591225026,15.4586022146,405.441,4195671.792,1160298.783,4646541.706,0,0,-0.001,-0.001,0,0,0.001,0.001,0.001,49.5100279224,0.0188256409,-0.3510340523,0.0010577969,0.3296913745,0.0010545206,0.005,0.002,0.006,Fixed,0.75,1.02,0.68,534826.992,5211836.249,1562828101.3
13203,2061,370519.4,47.0591225026,15.4586022146,405.441,4195671.792,1160298.783,4646541.706,0,0,0,0,0,0,0.001,0.001,0.001,49.5095523674,0.0188256092,-0.3514580411,0.001057063,0.3298976393,0.0010537838,0.005,0.002,0.006,Fixed,0.75,1.02,0.68,534826.992,5211836.249,1562828101.4
13204,2061,370519.5,47.0591225026,15.4586022146,405.441,4195671.792,1160298.783,4646541.706,0,0,0,0,0,0,0.001,0.001,0.001,49.5098273872,0.0188255757,-0.3512746946,0.0010563274,0.3301096337,0.0010530454,0.005,0.002,0.006,Fixed,0.75,1.02,0.68,534826.992,5211836.249,1562828101.5
13205,2061,370519.6,47.0591225026,15.4586022146,405.441,4195671.792,1160298.783,4646541.706,0,-0.001,-0.001,0,-0.001,-0.001,0.001,0.001,0.001,49.5098503055,0.018825544,-0.3511944805,0.00105559,0.3300294196,0.0010523052,0.005,0.002,0.006,Fixed,0.75,1.02,0.68,534826.992,5211836.249,1562828101.6
13206,2061,370519.7,47.0591225026,15.4586022146,405.441,4195671.792,1160298.783,4646541.706,0,-0.001,-0.001,0,-0.001,-0.001,0.001,0.001,0.001,49.5098904125,0.0188255105,-0.351486689,0.001054851,0.3301898478,0.0010515637,0.005,0.002,0.006,Fixed,0.75,1.02,0.68,534826.992,5211836.249,1562828101.7
13207,2061,370519.8,47.0591225026,15.4586022146,405.441,4195671.792,1160298.783,4646541.706,0,-0.001,-0.001,0,-0.001,-0.001,0.001,0.001,0.001,49.5101539731,0.0188254807,-0.351377827,0.0010541113,0.3297200224,0.0010508214,0.005,0.002,0.006,Fixed,0.75,1.02,0.68,534826.992,5211836.249,1562828101.8
13208,2061,370519.9,47.0591225026,15.4586022146,405.441,4195671.792,1160298.783,4646541.706,-0.001,-0.001,-0.001,0,-0.001,-0.001,0.001,0.001,0.001,49.5100107337,0.0188254472,-0.3511371847,0.0010533709,0.3294220843,0.0010500784,0.005,0.002,0.006,Fixed,0.75,1.02,0.68,534826.992,5211836.249,1562828101.9
13209,2061,370520,47.0591225026,15.4586022146,405.441,4195671.792,1160298.783,4646541.706,-0.001,-0.001,-0.001,0,-0.001,-0.001,0.001,0.001,0.001,49.510033652,0.0188254155,-0.3510455115,0.0010526289,0.329656997,0.001049334,0.005,0.002,0.006,Fixed,0.75,1.02,0.68,534826.992,5211836.249,1562828102
13210,2061,370520.1,47.0591225026,15.4586022146,405.441,4195671.792,1160298.783,4646541.706,-0.001,-0.001,-0.001,0,-0.001,-0.001,0.001,0.001,0.001,49.510033652,0.018825382,-0.3512116693,0.001051885,0.3298116956,0.0010485878,0.005,0.002,0.006,Fixed,0.75,1.02,0.68,534826.992,5211836.249,1562828102.1
13211,2061,370520.2,47.0591225026,15.4586022146,405.441,4195671.792,1160298.783,4646541.706,-0.001,-0.001,-0.001,0,-0.001,-0.001,0.001,0.001,0.001,49.5101081365,0.0188253522,-0.3514809594,0.0010511396,0.3294564618,0.0010478401,0.005,0.002,0.006,Fixed,0.75,1.02,0.68,534826.992,5211836.249,1562828102.2
13212,2061,370520.3,47.0591225026,15.4586022146,405.441,4195671.792,1160298.783,4646541.706,-0.001,-0.001,-0.001,0,-0.001,-0.001,0.001,0.001,0.001,49.5105550436,0.0188253187,-0.3514122045,0.0010503914,0.3290897688,0.0010470896,0.005,0.002,0.006,Fixed,0.75,1.02,0.68,534826.992,5211836.249,1562828102.3
13213,2061,370520.4,47.0591225026,15.4586022146,405.441,4195671.792,1160298.783,4646541.706,-0.001,-0.002,-0.001,0.001,-0.002,-0.001,0.001,0.001,0.001,49.5107154717,0.018825287,-0.3513892862,0.0010496406,0.3292673857,0.0010463366,0.005,0.002,0.006,Fixed,0.75,1.02,0.68,534826.992,5211836.249,1562828102.4
13214,2061,370520.5,47.0591225026,15.4586022146,405.441,4195671.792,1160298.783,4646541.706,-0.001,-0.002,-0.001,0,-0.002,-0.001,0.001,0.001,0.001,49.5109962211,0.0188252553,-0.3514122045,0.0010488882,0.3300351492,0.0010455819,0.005,0.002,0.006,Fixed,0.75,1.02,0.68,534826.992,5211836.249,1562828102.5
13215,2061,370520.6,47.0591225026,15.4586022146,405.441,4195671.792,1160298.783,4646541.706,-0.001,-0.002,-0.001,0,-0.002,-0.002,0.001,0.001,0.001,49.5107784971,0.0188252237,-0.3512976129,0.0010481338,0.3298231548,0.0010448254,0.005,0.002,0.006,Fixed,0.75,1.02,0.68,534826.992,5211836.249,1562828102.6
13216,2061,370520.7,47.0591225026,15.4586022146,405.441,4195671.792,1160298.783,4646541.706,-0.001,-0.002,-0.001,0,-0.002,-0.001,0.001,0.001,0.001,49.5105034774,0.0188251901,-0.3513434496,0.0010473778,0.3299492055,0.0010440673,0.005,0.002,0.006,Fixed,0.75,1.02,0.68,534826.992,5211836.249,1562828102.7
13217,2061,370520.8,47.0591225026,15.4586022146,405.441,4195671.792,1160298.783,4646541.706,-0.001,-0.002,-0.001,0.001,-0.002,-0.001,0.001,0.001,0.001,49.5110019506,0.0188251585,-0.3515325256,0.0010466208,0.3297486703,0.0010433083,0.005,0.002,0.006,Fixed,0.75,1.02,0.68,534826.992,5211836.249,1562828102.8
13218,2061,370520.9,47.0591225026,15.4586022146,405.441,4195671.792,1160298.783,4646541.706,-0.001,-0.002,-0.001,0.001,-0.002,-0.001,0.001,0.001,0.001,49.5112254042,0.0188251249,-0.3511429143,0.0010458629,0.3297085632,0.0010425485,0.005,0.002,0.006,Fixed,0.75,1.02,0.68,534826.992,5211836.249,1562828102.9
13219,2061,370521,47.0591225026,15.4586022146,405.441,4195671.792,1160298.783,4646541.706,-0.001,-0.002,-0.001,0.001,-0.002,-0.001,0.001,0.001,0.001,49.5112769704,0.0188250933,-0.3511085369,0.0010451032,0.3301153632,0.001041787,0.005,0.002,0.006,Fixed,0.75,1.02,0.68,534826.992,5211836.249,1562828103
13220,2061,370521.1,47.0591225026,15.4586022146,405.441,4195671.792,1160298.783,4646541.706,-0.001,-0.002,-0.001,0.001,-0.002,-0.001,0.001,0.001,0.001,49.5114202098,0.0188250616,-0.3511429143,0.0010443425,0.3302872506,0.0010410246,0.005,0.002,0.006,Fixed,0.75,1.02,0.68,534826.992,5211836.249,1562828103.1
13221,2061,370521.2,47.0591225026,15.4586022146,405.441,4195671.792,1160298.783,4646541.706,-0.001,-0.002,-0.001,0.001,-0.002,-0.001,0.001,0.001,0.001,49.5115749084,0.01882503,-0.3513663679,0.0010435819,0.3303158985,0.0010402624,0.005,0.002,0.006,Fixed,0.75,1.02,0.68,534826.992,5211836.249,1562828103.2
13222,2061,370521.3,47.0591225026,15.4586022146,405.441,4195671.792,1160298.783,4646541.706,-0.001,-0.002,-0.001,0.001,-0.002,-0.001,0.001,0.001,0.001,49.5116723113,0.0188249964,-0.3512804242,0.0010428195,0.3302471435,0.0010394987,0.005,0.002,0.006,Fixed,0.74,0.99,0.66,534826.992,5211836.249,1562828103.3
13223,2061,370521.4,47.0591225026,15.4586022146,405.441,4195671.792,1160298.783,4646541.706,-0.001,-0.002,-0.001,0.001,-0.002,-0.001,0.001,0.001,0.001,49.511798362,0.0188249648,-0.3515497144,0.0010420545,0.3301210928,0.0010387322,0.005,0.002,0.006,Fixed,0.74,0.99,0.66,534826.992,5211836.249,1562828103.4
13224,2061,370521.5,47.0591225026,15.4586022146,405.441,4195671.792,1160298.783,4646541.706,-0.001,-0.002,-0.001,0,-0.002,-0.001,0.001,0.001,0.001,49.5123254831,0.0188249331,-0.3512575059,0.0010412876,0.3299549351,0.001037964,0.005,0.002,0.006,Fixed,0.75,1.02,0.68,534826.992,5211836.249,1562828103.5
13225,2061,370521.6,47.0591225026,15.4586022146,405.441,4195671.792,1160298.783,4646541.706,-0.001,-0.002,-0.001,0,-0.002,-0.001,0.001,0.001,0.001,49.5122395395,0.0188248996,-0.3513663679,0.0010405177,0.3301898478,0.0010371928,0.005,0.002,0.006,Fixed,0.75,1.02,0.68,534826.992,5211836.249,1562828103.6
13226,2061,370521.7,47.0591225026,15.4586022146,405.441,4195671.792,1160298.783,4646541.706,-0.001,-0.002,-0.001,0,-0.002,-0.001,0.001,0.001,0.001,49.5119530606,0.0188248679,-0.3513262608,0.0010397452,0.3305794591,0.0010364188,0.005,0.002,0.006,Fixed,0.75,1.02,0.68,534826.992,5211836.249,1562828103.7
13227,2061,370521.8,47.0591225026,15.4586022146,405.441,4195671.792,1160298.783,4646541.706,0,-0.002,-0.001,0,-0.002,-0.001,0.001,0.001,0.001,49.5122223507,0.0188248362,-0.3513835566,0.0010389717,0.3305107041,0.0010356442,0.005,0.002,0.006,Fixed,0.66,0.92,0.62,534826.992,5211836.249,1562828103.8
13228,2061,370521.9,47.0591225026,15.4586022146,405.441,4195671.792,1160298.783,4646541.706,0,-0.002,-0.001,0,-0.002,-0.001,0.001,0.001,0.001,49.5121765141,0.0188248046,-0.3510168636,0.0010381975,0.3305851886,0.0010348691,0.005,0.002,0.006,Fixed,0.74,0.99,0.66,534826.992,5211836.249,1562828103.9
13229,2061,370522,47.0591225026,15.4586022146,405.441,4195671.792,1160298.783,4646541.706,0,-0.002,-0.001,0,-0.002,-0.001,0.001,0.001,0.001,49.5124114268,0.018824771,-0.3513033425,0.0010374215,0.3305565407,0.0010340919,0.005,0.002,0.006,Fixed,0.75,1.02,0.68,534826.992,5211836.249,1562828104
13230,2061,370522.1,47.0591225026,15.4586022146,405.441,4195671.792,1160298.783,4646541.706,0,-0.002,-0.001,0,-0.002,-0.001,0.001,0.001,0.001,49.5125260184,0.0188247394,-0.351119996,0.0010366434,0.3302700618,0.0010333129,0.005,0.002,0.006,Fixed,0.75,1.02,0.68,534826.992,5211836.249,1562828104.1
13231,2061,370522.2,47.0591225026,15.4586022146,405.441,4195671.792,1160298.783,4646541.706,0,-0.002,-0.001,0,-0.002,0,0.001,0.001,0.001,49.5122968353,0.0188247077,-0.3511887509,0.0010358621,0.3311180394,0.0010325309,0.005,0.002,0.006,Fixed,0.75,1.02,0.68,534826.992,5211836.249,1562828104.2
13232,2061,370522.3,47.0591225026,15.4586022146,405.441,4195671.792,1160298.783,4646541.706,0,-0.001,0,0,-0.001,0,0.001,0.001,0.001,49.5121707845,0.0188246742,-0.3510168636,0.0010350768,0.3307456168,0.0010317445,0.005,0.002,0.006,Fixed,0.75,1.02,0.68,534826.992,5211836.249,1562828104.3
13233,2061,370522.4,47.0591225026,15.4586022146,405.441,4195671.792,1160298.783,4646541.706,0,-0.001,-0.001,0,-0.001,0,0.001,0.001,0.001,49.5127322832,0.0188246425,-0.350604334,0.0010342883,0.3310893915,0.0010309551,0.005,0.002,0.006,Fixed,0.75,1.02,0.68,534826.992,5211836.249,1562828104.4
13234,2061,370522.5,47.0591225026,15.4586022146,405.441,4195671.792,1160298.783,4646541.706,0.001,-0.001,-0.001,-0.001,-0.001,0,0.001,0.001,0.001,49.5127953085,0.018824609,-0.3507704918,0.0010334977,0.3311008507,0.0010301636,0.005,0.002,0.006,Fixed,0.75,1.02,0.68,534826.992,5211836.249,1562828104.5
13235,2061,370522.6,47.0591225026,15.4586022146,405.441,4195671.792,1160298.783,4646541.706,0.001,-0.001,-0.001,-0.001,-0.001,0,0.001,0.001,0.001,49.5129671959,0.0188245792,-0.3513720974,0.0010327051,0.330797183,0.0010293704,0.005,0.002,0.006,Fixed,0.75,1.02,0.68,534826.992,5211836.249,1562828104.6
13236,2061,370522.7,47.0591225026,15.4586022146,405.441,4195671.792,1160298.783,4646541.706,0.001,0,-0.001,-0.001,-0.001,0,0.001,0.001,0.001,49.512571855,0.0188245457,-0.3510340523,0.0010319105,0.3308602084,0.001028575,0.005,0.002,0.006,Fixed,0.75,1.02,0.68,534826.992,5211836.249,1562828104.7
13237,2061,370522.8,47.0591225026,15.4586022146,405.441,4195671.792,1160298.783,4646541.706,0.001,0,-0.001,-0.001,0,0.001,0.001,0.001,0.001,49.5130588691,0.018824514,-0.351268965,0.0010311152,0.3310893915,0.0010277791,0.005,0.002,0.006,Fixed,0.75,1.02,0.68,534826.992,5211836.249,1562828104.8
13238,2061,370522.9,47.0591225026,15.4586022146,405.441,4195671.792,1160298.783,4646541.706,0.001,0,-0.001,-0.002,-0.001,0,0.001,0.001,0.001,49.5128927114,0.0188244805,-0.3510684298,0.0010303189,0.3309862591,0.0010269824,0.005,0.002,0.006,Fixed,0.75,1.02,0.68,534826.992,5211836.249,1562828104.9
13239,2061,370523,47.0591225026,15.4586022146,405.441,4195671.792,1160298.783,4646541.706,0.002,0,-0.001,-0.002,0,0.001,0.001,0.001,0.001,49.5130073029,0.0188244488,-0.3512116693,0.0010295209,0.3308888563,0.0010261839,0.005,0.002,0.006,Fixed,0.75,1.02,0.68,534826.992,5211836.249,1562828105
13240,2061,370523.1,47.0591225026,15.4586022146,405.441,4195671.792,1160298.783,4646541.706,0.002,0.001,-0.001,-0.002,0,0.001,0.001,0.001,0.001,49.5130989762,0.0188244171,-0.3512746946,0.0010287209,0.3307456168,0.0010253837,0.005,0.002,0.006,Fixed,0.75,1.02,0.68,534826.992,5211836.249,1562828105.1
13241,2061,370523.2,47.0591225026,15.4586022146,405.441,4195671.792,1160298.783,4646541.706,0.002,0.001,0,-0.002,0,0.001,0.001,0.001,0.001,49.5135688016,0.0188243855,-0.3507074664,0.0010279201,0.330648214,0.0010245827,0.005,0.002,0.006,Fixed,0.75,1.02,0.68,534826.992,5211836.249,1562828105.2
13242,2061,370523.3,47.0591225026,15.4586022146,405.441,4195671.792,1160298.783,4646541.706,0.003,0.001,-0.001,-0.003,0.001,0.001,0.001,0.001,0.001,49.5133224297,0.018824352,-0.3511142664,0.0010271173,0.3308315605,0.00102378,0.005,0.002,0.006,Fixed,0.75,1.02,0.68,534826.992,5211836.249,1562828105.3
13243,2061,370523.4,47.0591225026,15.4586022146,405.441,4195671.792,1160298.783,4646541.706,0.002,0.001,-0.001,-0.003,0,0.001,0.001,0.001,0.001,49.5132708635,0.0188243203,-0.3512632355,0.0010263115,0.3310722028,0.0010229744,0.005,0.002,0.006,Fixed,0.74,0.99,0.66,534826.992,5211836.249,1562828105.4
13244,2061,370523.5,47.0591225026,15.4586022146,405.441,4195671.792,1160298.783,4646541.706,0.003,0.002,-0.001,-0.003,0.001,0.001,0.001,0.001,0.001,49.5133969142,0.0188242886,-0.3508965425,0.0010255039,0.3312555493,0.0010221668,0.005,0.002,0.006,Fixed,0.75,1.02,0.68,534826.992,5211836.249,1562828105.5
13245,2061,370523.6,47.0591225026,15.4586022146,405.441,4195671.792,1160298.783,4646541.706,0.003,0.002,-0.001,-0.003,0.001,0.001,0.001,0.001,0.001,49.5137636072,0.018824257,-0.3511601031,0.0010246944,0.3306081069,0.0010213575,0.005,0.002,0.006,Fixed,0.75,1.02,0.68,534826.992,5211836.249,1562828105.6
13246,2061,370523.7,47.0591225026,15.4586022146,405.441,4195671.792,1160298.783,4646541.706,0.003,0.002,-0.001,-0.003,0.001,0.001,0.001,0.001,0.001,49.5138438213,0.0188242234,-0.3511028073,0.0010238816,0.3312383605,0.0010205449,0.005,0.002,0.006,Fixed,0.75,1.02,0.68,534826.992,5211836.249,1562828105.7
13247,2061,370523.8,47.0591225026,15.4586022146,405.441,4195671.792,1160298.783,4646541.706,0.003,0.002,-0.001,-0.003,0.001,0.002,0.001,0.001,0.001,49.5132135677,0.0188241918,-0.3510397819,0.001023067,0.3313816,0.0010197307,0.005,0.002,0.006,Fixed,0.75,1.02,0.68,534826.992,5211836.249,1562828105.8
13248,2061,370523.9,47.0591225026,15.4586022146,405.441,4195671.792,1160298.783,4646541.706,0.003,0.002,-0.001,-0.003,0.001,0.001,0.001,0.001,0.001,49.5133167001,0.0188241601,-0.3510168636,0.0010222519,0.3312841971,0.0010189159,0.005,0.002,0.006,Fixed,0.75,1.02,0.68,534826.992,5211836.249,1562828105.9
13249,2061,370524,47.0591225026,15.4586022146,405.441,4195671.792,1160298.783,4646541.706,0.003,0.002,-0.001,-0.003,0.001,0.002,0.001,0.001,0.001,49.5130416804,0.0188241266,-0.3508908129,0.0010214349,0.3315362986,0.0010180995,0.005,0.002,0.006,Fixed,0.75,1.02,0.68,534826.992,5211836.249,1562828106
13250,2061,370524.1,47.0591225026,15.4586022146,405.441,4195671.792,1160298.783,4646541.706,0.003,0.002,0,-0.003,0.001,0.002,0.001,0.001,0.001,49.5132422156,0.0188240949,-0.3508277875,0.0010206158,0.331123769,0.0010172811,0.005,0.002,0.006,Fixed,0.75,1.02,0.68,534826.992,5211836.249,1562828106.1
13251,2061,370524.2,47.0591225026,15.4586022146,405.441,4195671.792,1160298.783,4646541.706,0.003,0.002,0,-0.003,0.001,0.002,0.001,0.001,0.001,49.512938548,0.0188240632,-0.3511944805,0.0010197952,0.3312784676,0.0010164611,0.005,0.002,0.006,Fixed,0.75,1.02,0.68,534826.992,5211836.249,1562828106.2
13252,2061,370524.3,47.0591225026,15.4586022146,405.441,4195671.792,1160298.783,4646541.706,0.003,0.002,0,-0.003,0.001,0.002,0.001,0.001,0.001,49.5128468747,0.0188240316,-0.3509652974,0.0010189712,0.3309404225,0.0010156379,0.005,0.002,0.006,Fixed,0.75,1.02,0.68,534826.992,5211836.249,1562828106.3
13253,2061,370524.4,47.0591225026,15.4586022146,405.441,4195671.792,1160298.783,4646541.706,0.003,0.002,-0.001,-0.003,0.001,0.001,0.001,0.001,0.001,49.5130302212,0.018823998,-0.3511257256,0.0010181442,0.3311123098,0.0010148118,0.005,0.002,0.006,Fixed,0.75,1.02,0.68,534826.992,5211836.249,1562828106.4
13254,2061,370524.5,47.0591225026,15.4586022146,405.441,4195671.792,1160298.783,4646541.706,0.003,0.002,0,-0.003,0.001,0.002,0.001,0.001,0.001,49.5126005029,0.0188239664,-0.3509996749,0.0010173154,0.3311982535,0.0010139839,0.005,0.002,0.006,Fixed,0.75,1.02,0.68,534826.992,5211836.249,1562828106.5
13255,2061,370524.6,47.0591225026,15.4586022146,405.441,4195671.792,1160298.783,4646541.706,0.003,0.002,0,-0.003,0.001,0.002,0.001,0.001,0.001,49.5124286155,0.0188239329,-0.3508908129,0.0010164848,0.3314675436,0.0010131542,0.005,0.002,0.006,Fixed,0.75,1.02,0.68,534826.992,5211836.249,1562828106.6
13256,2061,370524.7,47.0591225026,15.4586022146,405.441,4195671.792,1160298.783,4646541.706,0.003,0.002,0,-0.003,0.001,0.002,0.001,0.001,0.001,49.5125031001,0.0188239031,-0.3509423791,0.0010156523,0.3314732732,0.0010123228,0.005,0.002,0.006,Fixed,0.75,1.02,0.68,534826.992,5211836.249,1562828106.7
13257,2061,370524.8,47.0591225026,15.4586022146,405.441,4195671.792,1160298.783,4646541.706,0.003,0.002,-0.001,-0.003,0.001,0.001,0.001,0.001,0.001,49.5122853761,0.0188238695,-0.3512976129,0.0010148193,0.3310779323,0.0010114911,0.005,0.002,0.006,Fixed,0.75,1.02,0.68,534826.992,5211836.249,1562828106.8
13258,2061,370524.9,47.0591225026,15.4586022146,405.441,4195671.792,1160298.783,4646541.706,0.002,0.002,-0.001,-0.003,0.001,0.001,0.001,0.001,0.001,49.5121020296,0.0188238379,-0.3508163284,0.0010139856,0.3306310253,0.0010106588,0.005,0.002,0.006,Fixed,0.75,1.02,0.68,534826.992,5211836.249,1562828106.9
13259,2061,370525,47.0591225026,15.4586022146,405.441,4195671.792,1160298.783,4646541.706,0.003,0.002,0,-0.003,0.001,0.001,0.001,0.001,0.001,49.5117124183,0.0188238043,-0.351011134,0.0010131503,0.3309346929,0.0010098249,0.005,0.002,0.006,Fixed,0.75,1.02,0.68,534826.992,5211836.249,1562828107
13260,2061,370525.1,47.0591225026,15.4586022146,405.441,4195671.792,1160298.783,4646541.706,0.002,0.001,0,-0.002,0.001,0.001,0.001,0.001,0.001,49.5117124183,0.0188237727,-0.3512173988,0.0010123132,0.3310836619,0.0010089895,0.005,0.002,0.006,Fixed,0.75,1.02,0.68,534826.992,5211836.249,1562828107.1
13261,2061,370525.2,47.0591225026,15.4586022146,405.441,4195671.792,1160298.783,4646541.706,0.002,0.001,-0.001,-0.002,0.001,0.001,0.001,0.001,0.001,49.5119530606,0.0188237391,-0.3509137312,0.0010114743,0.3312612788,0.0010081524,0.005,0.002,0.006,Fixed,0.75,1.02,0.68,534826.992,5211836.249,1562828107.2
13262,2061,370525.3,47.0591225026,15.4586022146,405.441,4195671.792,1160298.783,4646541.706,0.002,0.001,-0.001,-0.002,0,0.001,0.001,0.001,0.001,49.5121134888,0.0188237093,-0.3512173988,0.0010106326,0.3314274366,0.0010073124,0.005,0.002,0.006,Fixed,0.75,1.02,0.68,534826.992,5211836.249,1562828107.3
13263,2061,370525.4,47.0591225026,15.4586022146,405.441,4195671.792,1160298.783,4646541.706,0.002,0.001,-0.001,-0.002,0,0.001,0.001,0.001,0.001,49.5117582549,0.0188236758,-0.3512460467,0.0010097878,0.3312784676,0.0010064695,0.005,0.002,0.006,Fixed,0.75,1.02,0.68,534826.992,5211836.249,1562828107.4
13264,2061,370525.5,47.0591225026,15.4586022146,405.441,4195671.792,1160298.783,4646541.706,0.002,0,-0.001,-0.002,0,0,0.001,0.001,0.001,49.5115118831,0.0188236441,-0.3513606383,0.0010089413,0.3311008507,0.0010056249,0.005,0.002,0.006,Fixed,0.75,1.02,0.68,534826.992,5211836.249,1562828107.5
13265,2061,370525.6,47.0591225026,15.4586022146,405.441,4195671.792,1160298.783,4646541.706,0.001,0,-0.001,-0.002,0,0,0.001,0.001,0.001,49.5115348014,0.0188236106,-0.3512804242,0.0010080931,0.3309919887,0.0010047789,0.005,0.002,0.006,Fixed,0.75,1.02,0.68,534826.992,5211836.249,1562828107.6
13266,2061,370525.7,47.0591225026,15.4586022146,405.441,4195671.792,1160298.783,4646541.706,0.001,0,-0.001,-0.001,-0.001,0,0.001,0.001,0.001,49.5117353366,0.018823579,-0.3513892862,0.0010072433,0.3311982535,0.0010039312,0.005,0.002,0.006,Fixed,0.75,1.02,0.68,534826.992,5211836.249,1562828107.7
13267,2061,370525.8,47.0591225026,15.4586022146,405.441,4195671.792,1160298.783,4646541.706,0.001,0,-0.001,-0.001,-0.001,0,0.001,0.001,0.001,49.5117353366,0.0188235473,-0.3513319904,0.0010063929,0.3312498197,0.001003083,0.005,0.002,0.006,Fixed,0.75,1.02,0.68,534826.992,5211836.249,1562828107.8
13268,2061,370525.9,47.0591225026,15.4586022146,405.441,4195671.792,1160298.783,4646541.706,0.001,-0.001,-0.001,-0.001,-0.001,0,0.001,0.001,0.001,49.5116493929,0.0188235156,-0.3511601031,0.0010055419,0.3314045183,0.0010022345,0.005,0.002,0.006,Fixed,0.75,1.02,0.68,534826.992,5211836.249,1562828107.9
13269,2061,370526,47.0591225026,15.4586022146,405.441,4195671.792,1160298.783,4646541.706,0.001,-0.001,-0.001,-0.001,-0.001,0,0.001,0.001,0.001,49.5115863676,0.018823484,-0.3511142664,0.0010046893,0.3312097126,0.0010013845,0.005,0.002,0.006,Fixed,0.75,1.02,0.68,534826.992,5211836.249,1562828108
13270,2061,370526.1,47.0591225026,15.4586022146,405.441,4195671.792,1160298.783,4646541.706,0.001,-0.001,-0.001,-0.001,-0.001,0,0.001,0.001,0.001,49.5116493929,0.0188234504,-0.3508277875,0.001003835,0.3314388957,0.0010005329,0.005,0.002,0.006,Fixed,0.75,1.02,0.68,534826.992,5211836.249,1562828108.1
13271,2061,370526.2,47.0591225026,15.4586022146,405.441,4195671.792,1160298.783,4646541.706,0,-0.001,-0.001,-0.001,-0.002,-0.001,0.001,0.001,0.001,49.5117124183,0.0188234188,-0.3508163284,0.001002979,0.331312845,0.0009996798,0.005,0.002,0.006,Fixed,0.75,1.02,0.68,534826.992,5211836.249,1562828108.2
13272,2061,370526.3,47.0591225026,15.4586022146,405.441,4195671.792,1160298.783,4646541.706,0,-0.001,-0.001,-0.001,-0.001,0,0.001,0.001,0.001,49.511798362,0.0188233852,-0.3508793537,0.0010021202,0.3311008507,0.0009988239,0.005,0.002,0.006,Fixed,0.75,1.02,0.68,534826.992,5211836.249,1562828108.3
13273,2061,370526.4,47.0591225026,15.4586022146,405.441,4195671.792,1160298.783,4646541.706,0,-0.001,-0.001,0,-0.002,0,0.001,0.001,0.001,49.5117410662,0.0188233554,-0.3508908129,0.0010012587,0.3311294985,0.0009979652,0.005,0.002,0.006,Fixed,0.75,1.02,0.68,534826.992,5211836.249,1562828108.4
13274,2061,370526.5,47.0591225026,15.4586022146,405.441,4195671.792,1160298.783,4646541.706,0,-0.001,-0.001,0,-0.002,0,0.001,0.001,0.001,49.5116150155,0.0188233219,-0.3510283228,0.0010003954,0.3312039831,0.0009971051,0.005,0.002,0.006,Fixed,0.75,1.02,0.68,534826.992,5211836.249,1562828108.5
13275,2061,370526.6,47.0591225026,15.4586022146,405.441,4195671.792,1160298.783,4646541.706,0,-0.001,-0.001,-0.001,-0.002,0,0.001,0.001,0.001,49.5118613873,0.0188232902,-0.3505241199,0.0009995305,0.3315133803,0.0009962436,0.005,0.002,0.006,Fixed,0.75,1.02,0.68,534826.992,5211836.249,1562828108.6
13276,2061,370526.7,47.0591225026,15.4586022146,405.441,4195671.792,1160298.783,4646541.706,0,-0.002,-0.001,0,-0.002,-0.001,0.001,0.001,0.001,49.5118671169,0.0188232567,-0.3505069312,0.0009986639,0.3313816,0.0009953802,0.005,0.002,0.006,Fixed,0.75,1.02,0.68,534826.992,5211836.249,1562828108.7
13277,2061,370526.8,47.0591225026,15.4586022146,405.441,4195671.792,1160298.783,4646541.706,0,-0.002,-0.001,-0.001,-0.002,-0.001,0.001,0.001,0.001,49.511987438,0.0188232251,-0.3502491002,0.0009977969,0.3313185746,0.0009945165,0.005,0.002,0.006,Fixed,0.75,1.02,0.68,534826.992,5211836.249,1562828108.8
13278,2061,370526.9,47.0591225026,15.4586022146,405.441,4195671.792,1160298.783,4646541.706,0,-0.002,-0.001,0,-0.002,-0.001,0.001,0.001,0.001,49.5123254831,0.0188231915,-0.3502662889,0.0009969292,0.3314274366,0.0009936526,0.005,0.002,0.006,Fixed,0.75,1.02,0.68,534826.992,5211836.249,1562828108.9
13279,2061,370527,47.0591225026,15.4586022146,405.441,4195671.792,1160298.783,4646541.706,0,-0.002,-0.001,0,-0.002,-0.001,0.001,0.001,0.001,49.5124343451,0.0188231617,-0.3502949368,0.00099606,0.3318055887,0.0009927871,0.005,0.002,0.006,Fixed,0.75,1.02,0.68,534826.992,5211836.249,1562828109
13280,2061,370527.1,47.0591225026,15.4586022146,405.441,4195671.792,1160298.783,4646541.706,0,-0.002,-0.001,0,-0.002,-0.001,0.001,0.001,0.001,49.512314024,0.0188231282,-0.3499225142,0.000995189,0.3316623493,0.0009919201,0.005,0.002,0.006,Fixed,0.75,1.02,0.68,534826.992,5211836.249,1562828109.1
13281,2061,370527.2,47.0591225026,15.4586022146,405.441,4195671.792,1160298.783,4646541.706,0,-0.002,-0.001,0,-0.002,-0.001,0.001,0.001,0.001,49.5123426719,0.0188230965,-0.3500772128,0.0009943165,0.3319144507,0.0009910516,0.005,0.002,0.006,Fixed,0.75,1.02,0.68,534826.992,5211836.249,1562828109.2
13282,2061,370527.3,47.0591225026,15.4586022146,405.441,4195671.792,1160298.783,4646541.706,0,-0.002,-0.001,0,-0.002,0,0.001,0.001,0.001,49.5128526043,0.018823063,-0.3503006664,0.0009934413,0.3317597521,0.0009901804,0.005,0.002,0.006,Fixed,0.75,1.02,0.68,534826.992,5211836.249,1562828109.3
13283,2061,370527.4,47.0591225026,15.4586022146,405.441,4195671.792,1160298.783,4646541.706,0,-0.002,-0.001,0,-0.002,0,0.001,0.001,0.001,49.5124572634,0.0188230313,-0.3501918044,0.0009925633,0.332006124,0.0009893067,0.005,0.002,0.006,Fixed,0.75,1.02,0.68,534826.992,5211836.249,1562828109.4
13284,2061,370527.5,47.0591225026,15.4586022146,405.441,4195671.792,1160298.783,4646541.706,0,-0.002,-0.001,0,-0.002,-0.001,0.001,0.001,0.001,49.5128984409,0.0188229978,-0.3499740804,0.0009916837,0.3323384395,0.0009884314,0.005,0.002,0.006,Fixed,0.75,1.02,0.68,534826.992,5211836.249,1562828109.5
13285,2061,370527.6,47.0591225026,15.4586022146,405.441,4195671.792,1160298.783,4646541.706,0,-0.002,-0.001,0,-0.002,-0.001,0.001,0.001,0.001,49.5124744522,0.018822968,-0.35038661,0.0009908025,0.3326077297,0.0009875547,0.005,0.002,0.006,Fixed,0.75,1.02,0.68,534826.992,5211836.249,1562828109.6
13286,2061,370527.7,47.0591225026,15.4586022146,405.441,4195671.792,1160298.783,4646541.706,0,-0.002,-0.001,0,-0.002,-0.001,0.001,0.001,0.001,49.5122338099,0.0188229345,-0.3501516973,0.0009899196,0.3325676226,0.0009866764,0.005,0.002,0.006,Fixed,0.75,1.02,0.68,534826.992,5211836.249,1562828109.7
13287,2061,370527.8,47.0591225026,15.4586022146,405.441,4195671.792,1160298.783,4646541.706,0.001,-0.002,-0.001,-0.001,-0.002,0,0.001,0.001,0.001,49.5126291508,0.0188229028,-0.3506329819,0.0009890362,0.3326650254,0.0009857976,0.005,0.002,0.006,Fixed,0.75,1.02,0.68,534826.992,5211836.249,1562828109.8
13288,2061,370527.9,47.0591225026,15.4586022146,405.441,4195671.792,1160298.783,4646541.706,0.001,-0.002,-0.001,-0.001,-0.002,0,0.001,0.001,0.001,49.5129843846,0.0188228711,-0.3505183903,0.000988152,0.3324071944,0.0009849183,0.005,0.002,0.006,Fixed,0.75,1.02,0.68,534826.992,5211836.249,1562828109.9
13289,2061,370528,47.0591225026,15.4586022146,405.441,4195671.792,1160298.783,4646541.706,0.001,-0.002,-0.001,-0.001,-0.002,0,0.001,0.001,0.001,49.5131562719,0.0188228376,-0.3505241199,0.0009872663,0.3323269803,0.0009840375,0.005,0.002,0.006,Fixed,0.75,1.02,0.68,534826.992,5211836.249,1562828110
13290,2061,370528.1,47.0591225026,15.4586022146,405.441,4195671.792,1160298.783,4646541.706,0.001,-0.001,-0.001,-0.001,-0.002,0,0.001,0.001,0.001,49.5128354156,0.018822806,-0.3504381762,0.0009863789,0.3324186536,0.0009831553,0.005,0.002,0.006,Fixed,0.75,1.02,0.68,534826.992,5211836.249,1562828110.1
13291,2061,370528.2,47.0591225026,15.4586022146,405.441,4195671.792,1160298.783,4646541.706,0.001,-0.001,-0.001,-0.001,-0.002,0,0.001,0.001,0.001,49.5131276241,0.0188227743,-0.3503178551,0.0009854898,0.332779617,0.0009822716,0.005,0.002,0.006,Fixed,0.75,1.02,0.68,534826.992,5211836.249,1562828110.2
13292,2061,370528.3,47.0591225026,15.4586022146,405.441,4195671.792,1160298.783,4646541.706,0.001,-0.001,-0.001,-0.001,-0.002,0,0.001,0.001,0.001,49.5133739959,0.0188227408,-0.3504782833,0.0009845981,0.3325447043,0.0009813854,0.005,0.002,0.006,Fixed,0.75,1.02,0.68,534826.992,5211836.249,1562828110.3
13293,2061,370528.4,47.0591225026,15.4586022146,405.441,4195671.792,1160298.783,4646541.706,0.002,-0.001,-0.001,-0.002,-0.001,0,0.001,0.001,0.001,49.5133167001,0.0188227091,-0.3505584974,0.0009837039,0.332521786,0.0009804965,0.005,0.002,0.006,Fixed,0.75,1.02,0.68,534826.992,5211836.249,1562828110.4
13294,2061,370528.5,47.0591225026,15.4586022146,405.441,4195671.792,1160298.783,4646541.706,0.002,-0.001,-0.001,-0.002,-0.001,0,0.001,0.001,0.001,49.5133281593,0.0188226774,-0.3505012016,0.0009828078,0.3324071944,0.0009796062,0.005,0.002,0.006,Fixed,0.75,1.02,0.68,534826.992,5211836.249,1562828110.5
13295,2061,370528.6,47.0591225026,15.4586022146,405.441,4195671.792,1160298.783,4646541.706,0.002,0,-0.001,-0.002,-0.001,0,0.001,0.001,0.001,49.513236486,0.0188226439,-0.3506329819,0.0009819111,0.3323097916,0.0009787153,0.005,0.002,0.006,Fixed,0.75,1.02,0.68,534826.992,5211836.249,1562828110.6
13296,2061,370528.7,47.0591225026,15.4586022146,405.441,4195671.792,1160298.783,4646541.706,0.002,0,-0.001,-0.002,-0.001,0.001,0.001,0.001,0.001,49.5129328184,0.0188226122,-0.3507934101,0.0009810136,0.3324644902,0.0009778236,0.005,0.002,0.006,Fixed,0.75,1.02,0.68,534826.992,5211836.249,1562828110.7
13297,2061,370528.8,47.0591225026,15.4586022146,405.441,4195671.792,1160298.783,4646541.706,0.002,0,-0.001,-0.002,-0.001,0.001,0.001,0.001,0.001,49.5133281593,0.0188225787,-0.3507475734,0.0009801154,0.3328999381,0.0009769317,0.005,0.002,0.006,Fixed,0.74,0.99,0.66,534826.992,5211836.249,1562828110.8
13298,2061,370528.9,47.0591225026,15.4586022146,405.441,4195671.792,1160298.783,4646541.706,0.002,0,-0.001,-0.002,-0.001,0.001,0.001,0.001,0.001,49.5131562719,0.0188225489,-0.350753303,0.0009792167,0.3328541015,0.0009760391,0.005,0.002,0.006,Fixed,0.75,1.02,0.68,534826.992,5211836.249,1562828110.9
13299,2061,370529,47.0591225026,15.4586022146,405.441,4195671.792,1160298.783,4646541.706,0.002,0,-0.001,-0.002,-0.001,0.001,0.001,0.001,0.001,49.5132765931,0.0188225154,-0.3511314552,0.0009783162,0.3329113973,0.000975145,0.005,0.002,0.006,Fixed,0.75,1.02,0.68,534826.992,5211836.249,1562828111
