,time,.header.seq,.header.stamp.secs,.header.stamp.nsecs,.header.frame_id,.child_frame_id,.pose.pose.position.x,.pose.pose.position.y,.pose.pose.position.z,.pose.pose.orientation.x,.pose.pose.orientation.y,.pose.pose.orientation.z,.pose.pose.orientation.w,.pose.covariance,.twist.twist.linear.x,.twist.twist.linear.y,.twist.twist.linear.z,.twist.twist.angular.x,.twist.twist.angular.y,.twist.twist.angular.z,.twist.covariance,yaw
0,2019/07/11/08:54:51.700519,0,1562828090,566920263,odom,base_link,0.0,2.3841857932399997e-09,1.33514403977e-08,0.0,0.0,0.0,1.0,"(0.0, 0.0, 0.0, 0.0, 0.0, 0.0, 0.0, 0.0, 0.0, 0.0, 0.0, 0.0, 0.0, 0.0, 0.0, 0.0, 0.0, 0.0, 0.0, 0.0, 0.0, 0.0, 0.0, 0.0, 0.0, 0.0, 0.0, 0.0, 0.0, 0.0, 0.0, 0.0, 0.0, 0.0, 0.0, 0.0)",0.0,0.0,0.0,0.0,0.0,0.0,"(0.0, 0.0, 0.0, 0.0, 0.0, 0.0, 0.0, 0.0, 0.0, 0.0, 0.0, 0.0, 0.0, 0.0, 0.0, 0.0, 0.0, 0.0, 0.0, 0.0, 0.0, 0.0, 0.0, 0.0, 0.0, 0.0, 0.0, 0.0, 0.0, 0.0, 0.0, 0.0, 0.0, 0.0, 0.0, 0.0)",0.0
1,2019/07/11/08:54:52.871899,1,1562828091,633667263,odom,base_link,8.79421713762e-05,-0.00017794517276299997,-7.76783999172e-05,0.0,0.0,0.0,1.0,"(1.9274990492590405e-08, 1.5186294444191617e-09, -7.470251084384927e-09, 8.873090456829047e-11, -3.5980304846638944e-10, -2.520948944387258e-12, 1.518628778285347e-09, 5.925341106660653e-09, -9.255800015317561e-10, -2.0117082999426827e-10, -1.7453020972890698e-10, -4.486275240189741e-10, -7.470249308028087e-09, -9.255814448216881e-10, 6.497611337863418e-09, 4.223102770262166e-11, 4.902291905750644e-10, 9.065313083533866e-11, 8.873090456829047e-11, -2.0117077448311704e-10, 4.223099647759909e-11, 3.2013508510786437e-10, 6.648883527082816e-11, 2.760140423510582e-12, -3.598034648000237e-10, -1.7453063994032902e-10, 4.902295236419718e-10, 6.648884220972207e-11, 1.5341079795394563e-10, 4.546649168268857e-11, -2.5209038415768825e-12, -4.4862794035260833e-10, 9.065298511856668e-11, 2.760139122467975e-12, 4.5466463927112954e-11, 1.6545217973451543e-10)",0.0,0.0,0.0,0.0,0.0,0.0,"(0.0, 0.0, 0.0, 0.0, 0.0, 0.0, 0.0, 0.0, 0.0, 0.0, 0.0, 0.0, 0.0, 0.0, 0.0, 0.0, 0.0, 0.0, 0.0, 0.0, 0.0, 0.0, 0.0, 0.0, 0.0, 0.0, 0.0, 0.0, 0.0, 0.0, 0.0, 0.0, 0.0, 0.0, 0.0, 0.0)",0.0
2,2019/07/11/08:54:54.012461,2,1562828092,767063263,odom,base_link,0.00015100851305799998,-0.00029902583861299997,-5.41130720522e-05,0.0,0.0,0.0,1.0,"(4.363675287777369e-08, 3.2772349278786805e-09, -1.6881687159298053e-08, 2.0064676309328178e-10, -8.162263087641008e-10, -2.5767534807263903e-12, 3.2772347058340756e-09, 1.351385847669917e-08, -2.053448966421456e-09, -4.47498954558867e-10, -3.883619259514859e-10, -1.0121120608275191e-09, -1.6881687159298053e-08, -2.0534500766444808e-09, 1.4543948267942142e-08, 9.337314255120077e-11, 1.0959123608600407e-09, 2.016521671865945e-10, 2.0064723493806724e-10, -4.4749867700311086e-10, 9.33726637675214e-11, 7.107340826983943e-10, 1.473097754889352e-10, 6.083060270778429e-12, -8.162261977417984e-10, -3.883623422851201e-10, 1.0959121388154358e-09, 1.4730981712229863e-10, 3.411264604125108e-10, 1.0104227177176739e-10, -2.576653083605218e-12, -1.0121129490059388e-09, 2.0165211167544328e-10, 6.083100603099245e-12, 1.0104227177176739e-10, 3.683463811743337e-10)",0.0,0.0,0.0,0.0,0.0,0.0,"(0.0, 0.0, 0.0, 0.0, 0.0, 0.0, 0.0, 0.0, 0.0, 0.0, 0.0, 0.0, 0.0, 0.0, 0.0, 0.0, 0.0, 0.0, 0.0, 0.0, 0.0, 0.0, 0.0, 0.0, 0.0, 0.0, 0.0, 0.0, 0.0, 0.0, 0.0, 0.0, 0.0, 0.0, 0.0, 0.0)",0.0
3,2019/07/11/08:54:55.034218,3,1562828093,900427263,odom,base_link,0.00018153049313700002,-0.00040055265213599997,-3.2141796837400003e-06,0.0,0.0,0.0,1.0,"(5.154427640263748e-08, 3.7228773397401937e-09, -1.991360321085267e-08, 2.375135366161629e-10, -9.65293400767564e-10, 2.9908180424441377e-13, 3.7228786720078233e-09, 1.605671151594379e-08, -2.38852426726055e-09, -5.215525789026287e-10, -4.5288017780364953e-10, -1.192339671440834e-09, -1.991360676356635e-08, -2.388524045215945e-09, 1.702567331562932e-08, 1.0825354501697859e-10, 1.2816676608906619e-09, 2.348586602973768e-10, 2.3751428601670455e-10, -5.215523568580238e-10, 1.0825289276095162e-10, 8.270050755321279e-10, 1.713959529858755e-10, 7.147552515129885e-12, -9.652924015668418e-10, -4.5288017780364953e-10, 1.2816667727122422e-09, 1.7139606400817797e-10, 3.9741188118114223e-10, 1.1767285756913992e-10, 2.995606963440006e-13, -1.1923394493962292e-09, 2.3485843825277186e-10, 7.147599352663736e-12, 1.1767284369135211e-10, 4.293226885110357e-10)",0.0,0.0,0.0,0.0,0.0,0.0,"(0.0, 0.0, 0.0, 0.0, 0.0, 0.0, 0.0, 0.0, 0.0, 0.0, 0.0, 0.0, 0.0, 0.0, 0.0, 0.0, 0.0, 0.0, 0.0, 0.0, 0.0, 0.0, 0.0, 0.0, 0.0, 0.0, 0.0, 0.0, 0.0, 0.0, 0.0, 0.0, 0.0, 0.0, 0.0, 0.0)",0.0
4,2019/07/11/08:54:56.069932,4,1562828094,967186263,odom,base_link,0.00021718721836799999,-0.000491339388245,5.68709511426e-05,0.0,0.0,0.0,1.0,"(7.301908055978856e-08, 5.274804593113913e-09, -2.8208026137122033e-08, 3.364589440391086e-10, -1.3671112020219311e-09, 7.073398399122521e-13, 5.2748063694707525e-09, 2.2747117967014674e-08, -3.3814739897053414e-09, -7.401635970794018e-10, -6.420438070087187e-10, -1.6891718024325542e-09, -2.8208027913478873e-08, -3.3814733235715266e-09, 2.4124641839762262e-08, 1.518335734917997e-10, 1.8152981340335828e-09, 3.329147790775977e-10, 3.3645938812831844e-10, -7.401632085013432e-10, 1.518328240912581e-10, 1.1728560345147798e-09, 2.433420132064157e-10, 1.025070653359883e-11, -1.367111646111141e-09, -6.420437514975674e-10, 1.8152983560781877e-09, 2.4334212422871815e-10, 5.632171395930641e-10, 1.66785141253456e-10, 7.086787753851631e-13, -1.6891704701649246e-09, 3.3291380763245115e-10, 1.025072388083359e-11, 1.667851134978804e-10, 6.08272876512217e-10)",0.0,0.0,0.0,0.0,0.0,0.0,"(0.0, 0.0, 0.0, 0.0, 0.0, 0.0, 0.0, 0.0, 0.0, 0.0, 0.0, 0.0, 0.0, 0.0, 0.0, 0.0, 0.0, 0.0, 0.0, 0.0, 0.0, 0.0, 0.0, 0.0, 0.0, 0.0, 0.0, 0.0, 0.0, 0.0, 0.0, 0.0, 0.0, 0.0, 0.0, 0.0)",0.0
5,2019/07/11/08:54:57.131086,5,1562828095,967310263,odom,base_link,0.00019162192783500002,-0.000428898765996,0.000231818991305,0.00012207031068100001,0.00012207031068100001,0.0,0.999999985099,"(1.3072482829556975e-07, 9.446454285466643e-09, -5.0485549962786536e-08, 5.992116802744363e-10, -2.447189562104768e-09, 1.9920540911266826e-12, 9.446456061823483e-09, 4.071913650705028e-08, -6.050167922211358e-09, -1.326097676113136e-09, -1.1494328822081457e-09, -3.0232931713669586e-09, -5.048554285735918e-08, -6.050164369497679e-09, 4.319866064861344e-08, 2.688786138183019e-10, 3.2491684898161566e-09, 5.9636834359722e-10, 5.992116802744363e-10, -1.326097454068531e-09, 2.6887778115103345e-10, 2.1003039307743165e-09, 4.357368910135051e-10, 1.8154217712451626e-11, -2.447189340060163e-09, -1.1494318830074235e-09, 3.2491687118607615e-09, 4.357368632579295e-10, 1.0082392698507192e-09, 2.9852359473281354e-10, 1.9935266545173524e-12, -3.02328917456407e-09, 5.963669558184392e-10, 1.8154127506830875e-11, 2.9852359473281354e-10, 1.0888470125536287e-09)",0.0,0.0,0.0,0.0,0.0,0.0,"(0.0, 0.0, 0.0, 0.0, 0.0, 0.0, 0.0, 0.0, 0.0, 0.0, 0.0, 0.0, 0.0, 0.0, 0.0, 0.0, 0.0, 0.0, 0.0, 0.0, 0.0, 0.0, 0.0, 0.0, 0.0, 0.0, 0.0, 0.0, 0.0, 0.0, 0.0, 0.0, 0.0, 0.0, 0.0, 0.0)",2.9802322387690114e-08
6,2019/07/11/08:54:58.214006,6,1562828097,33937263,odom,base_link,0.000154373294046,-0.000617852316717,0.0005436522770770001,0.0,0.000244140617724,2.9802321499500002e-08,0.999999970198,"(2.783682759854855e-07, 2.0114553578309824e-08, -1.0752096812893797e-07, 1.273414373947901e-09, -5.210017750556517e-09, 5.0582238050878026e-12, 2.0114553578309824e-08, 8.67125109493827e-08, -1.2883851319145379e-08, -2.8258375639467204e-09, -2.4478128413107925e-09, -6.437771649103752e-09, -1.0752096812893797e-07, -1.2883839772825922e-08, 9.202562978316564e-08, 5.714054784888845e-10, 6.91999213486838e-09, 1.2702455753910158e-09, 1.2734137078140861e-09, -2.825838230080535e-09, 5.714045903104648e-10, 4.472864745252991e-09, 9.279512158677505e-10, 3.829258438114991e-11, -5.2100133096644186e-09, -2.4478097326863235e-09, 6.91999213486838e-09, 9.279509383119944e-10, 2.1470147881785806e-09, 6.355762027787648e-10, 5.06005307099322e-12, -6.4377636554979745e-09, 1.270243465967269e-09, 3.8292244375348616e-11, 6.355760917564623e-10, 2.318651493027346e-09)",0.0,0.0,0.0,0.0,0.0,0.0,"(0.0, 0.0, 0.0, 0.0, 0.0, 0.0, 0.0, 0.0, 0.0, 0.0, 0.0, 0.0, 0.0, 0.0, 0.0, 0.0, 0.0, 0.0, 0.0, 0.0, 0.0, 0.0, 0.0, 0.0, 0.0, 0.0, 0.0, 0.0, 0.0, 0.0, 0.0, 0.0, 0.0, 0.0, 0.0, 0.0)",5.960464832808982e-08
7,2019/07/11/08:54:59.273933,7,1562828098,100694263,odom,base_link,0.0680241792684,-0.142329032878,0.132629576331,-0.000121514410717,0.00203404169222,0.0022772517985100004,0.999995331006,"(2.216601615145919e-06, 7.976991156510849e-08, -7.029608468656079e-07, 9.550497281907155e-09, -3.843187101892909e-08, 1.782560321572646e-09, 7.97699257759632e-08, 7.873009053582791e-07, -8.913599458537647e-08, -8.16585910001777e-09, -1.2810162708376538e-08, -4.281081089629879e-08, -7.029604489616759e-07, -8.913596616366704e-08, 6.651678177149734e-07, 1.6523302726056954e-09, 4.1576424081313235e-08, 6.7679661874819885e-09, 9.550498170085575e-09, -8.165864429088288e-09, 1.652307624055993e-09, 1.8233572873782578e-08, 3.773689805086633e-09, -9.908756454235501e-11, -3.843185680807437e-08, -1.2810152050235502e-08, 4.1576427634026913e-08, 3.773689805086633e-09, 9.292250524595147e-09, 2.6479767267773013e-09, 1.7825715348251947e-09, -4.2810739842025214e-08, 6.767955085251742e-09, -9.908800169267096e-11, 2.6479762826880915e-09, 9.947356716111244e-09)",0.0,0.0,0.0,0.0,0.0,0.0,"(0.0, 0.0, 0.0, 0.0, 0.0, 0.0, 0.0, 0.0, 0.0, 0.0, 0.0, 0.0, 0.0, 0.0, 0.0, 0.0, 0.0, 0.0, 0.0, 0.0, 0.0, 0.0, 0.0, 0.0, 0.0, 0.0, 0.0, 0.0, 0.0, 0.0, 0.0, 0.0, 0.0, 0.0, 0.0, 0.0)",0.004554041435597476
8,2019/07/11/08:55:00.303972,8,1562828099,167448263,odom,base_link,0.071510102149,-0.145868343937,0.135950365555,-0.000121514410717,0.00203404169222,0.0022772517985100004,0.999995331006,"(6.251021478220764e-09, 4.4561265788445326e-10, -2.420778244527355e-09, 3.7425895715870183e-11, -1.0286198282027925e-10, 9.584147711572122e-12, 4.4561243583984833e-10, 2.134396215325296e-09, -3.4758018685465686e-10, -1.0851172044246127e-10, -7.619392616842191e-11, -2.136706367394936e-10, -2.420778688616565e-09, -3.4758054767713986e-10, 2.220887695969509e-09, 2.0399026218198557e-11, 1.98919547500509e-10, 3.8963627463362016e-11, 3.742585408250676e-11, -1.0851174125914298e-10, 2.0399053973774173e-11, 1.5600028213658135e-10, 3.368466269804138e-11, 4.864472106375084e-12, -1.0286232282608054e-10, -7.619397474067924e-11, 1.989197417895383e-10, 3.368466269804138e-11, 7.441877669656094e-11, 2.0577298545654266e-11, 9.584210161617257e-12, -2.136708032729473e-10, 3.8963589299445545e-11, 4.864464300119442e-12, 2.057730028037774e-11, 8.621386243801155e-11)",0.0,0.0,0.0,0.0,0.0,0.0,"(0.0, 0.0, 0.0, 0.0, 0.0, 0.0, 0.0, 0.0, 0.0, 0.0, 0.0, 0.0, 0.0, 0.0, 0.0, 0.0, 0.0, 0.0, 0.0, 0.0, 0.0, 0.0, 0.0, 0.0, 0.0, 0.0, 0.0, 0.0, 0.0, 0.0, 0.0, 0.0, 0.0, 0.0, 0.0, 0.0)",0.004554041435597476
9,2019/07/11/08:55:01.354639,9,1562828100,234204263,odom,base_link,0.07243778063289999,-0.14662069287,0.135884100803,-0.00024330616480700002,0.0019116939363399998,0.00227751489398,0.999995549567,"(3.634074730030079e-08, 2.819191990965919e-09, -1.4105029144673153e-08, 2.1572167663297392e-10, -5.958644133663427e-10, 5.166526234612334e-11, 2.8191933232335487e-09, 1.2282112216155383e-08, -2.073897276133607e-09, -6.412833597480017e-10, -4.5130141290705694e-10, -1.2474734578660218e-09, -1.4105030921029993e-08, -2.073897498178212e-09, 1.3087850803117362e-08, 1.2345131861213332e-10, 1.175915143036832e-09, 2.304297586075421e-10, 2.1572202357766912e-10, -6.412836373037578e-10, 1.2345134636770894e-10, 9.270231804414664e-10, 2.00251829007847e-10, 2.884461419716544e-11, -5.958646354109476e-10, -4.5130141290705694e-10, 1.1759158091706468e-09, 2.0025181513005919e-10, 4.4192813297705413e-10, 1.2217532541214382e-10, 5.166520683497211e-11, -1.2474729027545095e-09, 2.304297586075421e-10, 2.8844581237419398e-11, 1.22175311534356e-10, 5.110245560047133e-10)",0.0,0.0,0.0,0.0,0.0,0.0,"(0.0, 0.0, 0.0, 0.0, 0.0, 0.0, 0.0, 0.0, 0.0, 0.0, 0.0, 0.0, 0.0, 0.0, 0.0, 0.0, 0.0, 0.0, 0.0, 0.0, 0.0, 0.0, 0.0, 0.0, 0.0, 0.0, 0.0, 0.0, 0.0, 0.0, 0.0, 0.0, 0.0, 0.0, 0.0, 0.0)",0.004554128310222317
10,2019/07/11/08:55:02.439654,10,1562828101,234206263,odom,base_link,0.07311810833639999,-0.1472096772,0.13508260382600001,-0.00036475426015499993,0.0016384595238400001,0.0022778145655,0.9999959969750001,"(1.6675269876031962e-07, 1.325937848406511e-08, -6.470741453767914e-08, 9.905680720123655e-10, -2.7307771599538455e-09, 2.289349682049746e-10, 1.3259382924957208e-08, 5.6233755429957455e-08, -9.619718355224904e-09, -2.954616107331276e-09, -2.083100802963145e-09, -5.7319415880385804e-09, -6.470742874853386e-08, -9.619723684295423e-09, 6.020946585749698e-08, 5.703471583906605e-10, 5.415921489060338e-09, 1.064380028559242e-09, 9.905655184994089e-10, -2.9546152191528563e-09, 5.703477690133241e-10, 4.276260234803431e-09, 9.237377529558444e-10, 1.3337964066550967e-10, -2.7307764938200307e-09, -2.0830994706955153e-09, 5.415919268614289e-09, 9.237375309112394e-10, 2.038195612286131e-09, 5.637655342560777e-10, 2.2893492657161119e-10, -5.731944696663049e-09, 1.0643795844700321e-09, 1.3337979332117555e-10, 5.637655342560777e-10, 2.356101536094002e-09)",0.0,0.0,0.0,0.0,0.0,0.0,"(0.0, 0.0, 0.0, 0.0, 0.0, 0.0, 0.0, 0.0, 0.0, 0.0, 0.0, 0.0, 0.0, 0.0, 0.0, 0.0, 0.0, 0.0, 0.0, 0.0, 0.0, 0.0, 0.0, 0.0, 0.0, 0.0, 0.0, 0.0, 0.0, 0.0, 0.0, 0.0, 0.0, 0.0, 0.0, 0.0)",0.004554455847985035
11,2019/07/11/08:55:03.556335,11,1562828102,367592263,odom,base_link,0.0736391032496,-0.147613023939,0.134120077619,-0.00036407315457099996,0.0013394506716600002,0.00227792352883,0.999996442187,"(5.306835646479158e-07, 4.226876981761052e-08, -2.0588902316376334e-07, 3.15372794545965e-09, -8.690377306663777e-09, 7.252884959285666e-10, 4.226876626489684e-08, 1.7895646919896535e-07, -3.064940656827275e-08, -9.402886469445093e-09, -6.632087767854955e-09, -1.8243948574081514e-08, -2.058890800071822e-07, -3.0649431437268504e-08, 1.9159601549745275e-07, 1.8150486669199495e-09, 1.7237111293866292e-08, 3.3897986639885858e-09, 3.1537172873186137e-09, -9.402883804909834e-09, 1.8150513314552086e-09, 1.3611145988079443e-08, 2.9400808454482785e-09, 4.249223195529339e-10, -8.690372865771678e-09, -6.632082438784437e-09, 1.7237098859368416e-08, 2.9400804013590687e-09, 6.487396397858447e-09, 1.7946945041202866e-09, 7.252886069508691e-10, -1.824396278493623e-08, 3.389795333319512e-09, 4.2492309670905115e-10, 1.794694837187194e-09, 7.499362908447438e-09)",0.0,0.0,0.0,0.0,0.0,0.0,"(0.0, 0.0, 0.0, 0.0, 0.0, 0.0, 0.0, 0.0, 0.0, 0.0, 0.0, 0.0, 0.0, 0.0, 0.0, 0.0, 0.0, 0.0, 0.0, 0.0, 0.0, 0.0, 0.0, 0.0, 0.0, 0.0, 0.0, 0.0, 0.0, 0.0, 0.0, 0.0, 0.0, 0.0, 0.0, 0.0)",0.004554887646978091
12,2019/07/11/08:55:04.608530,12,1562828103,434342263,odom,base_link,0.0733973215756,-0.148237421651,0.135003266453,-0.00015352689828299998,0.00187211123116,0.00252158593167,0.999995056604,"(9.404179195371398e-07, 7.51446194158234e-08, -3.6582591178557777e-07, 5.610668374345096e-09, -1.536468019480708e-08, 1.2960774675718767e-09, 7.51446194158234e-08, 3.175094889229513e-07, -5.452266549355045e-08, -1.6735835828285417e-08, -1.177321973244716e-08, -3.234400125506909e-08, -3.6582608231583436e-07, -5.452269746797356e-08, 3.406313737741584e-07, 3.195549824752675e-09, 3.058040576320309e-08, 6.005459685098913e-09, 5.610648834419862e-09, -1.67358304992149e-08, 3.195555153823193e-09, 2.414297739505855e-08, 5.22096721411458e-09, 7.425260961646529e-10, -1.5364669536666042e-08, -1.1773208186127704e-08, 3.0580384446921016e-08, 5.2209663259361605e-09, 1.150692074958215e-08, 3.176836571583408e-09, 1.2960776896164816e-09, -3.234402612406484e-08, 6.005454356028395e-09, 7.425274839434337e-10, 3.1768370156726178e-09, 1.3302962287298215e-08)",0.0,0.0,0.0,0.0,0.0,0.0,"(0.0, 0.0, 0.0, 0.0, 0.0, 0.0, 0.0, 0.0, 0.0, 0.0, 0.0, 0.0, 0.0, 0.0, 0.0, 0.0, 0.0, 0.0, 0.0, 0.0, 0.0, 0.0, 0.0, 0.0, 0.0, 0.0, 0.0, 0.0, 0.0, 0.0, 0.0, 0.0, 0.0, 0.0, 0.0, 0.0)",0.00504262882586611
13,2019/07/11/08:55:05.644709,13,1562828104,501097263,odom,base_link,0.177522747914,-0.0888758504816,0.08920269664889999,0.000405834132196,0.0006404162259269999,0.0008425410100149999,0.999999357645,"(1.7772337059795973e-06, 1.7786696560051496e-07, -6.84797612393595e-07, 9.39116517884031e-09, -3.08718668406982e-08, 1.666614957152035e-09, 1.778669940222244e-07, 5.619607463813736e-07, -1.101106334999713e-07, -2.5508100520710286e-08, -1.992586717847189e-08, -5.312478990049385e-08, -6.847979534541082e-07, -1.1011062639454394e-07, 5.981715958114364e-07, 4.3630277168915654e-09, 5.125797386540398e-08, 9.749849816387268e-09, 9.391126987168263e-09, -2.550812006063552e-08, 4.3630601354038845e-09, 3.9067252544100484e-08, 8.292455611069727e-09, 1.141101435564451e-09, -3.0871891709693955e-08, -1.9925861849401372e-08, 5.125799162897238e-08, 8.292452058356048e-09, 1.852480124853173e-08, 5.109683343107463e-09, 1.6666301672074724e-09, -5.3124779242352815e-08, 9.749847151852009e-09, 1.1411007694306363e-09, 5.109683787196673e-09, 2.1440859754306985e-08)",0.0,0.0,0.0,0.0,0.0,0.0,"(0.0, 0.0, 0.0, 0.0, 0.0, 0.0, 0.0, 0.0, 0.0, 0.0, 0.0, 0.0, 0.0, 0.0, 0.0, 0.0, 0.0, 0.0, 0.0, 0.0, 0.0, 0.0, 0.0, 0.0, 0.0, 0.0, 0.0, 0.0, 0.0, 0.0, 0.0, 0.0, 0.0, 0.0, 0.0, 0.0)",0.0016856029225055143
14,2019/07/11/08:55:06.641741,14,1562828105,567727263,odom,base_link,0.180852342687,-0.085679610659,0.0861000632268,0.000405834132196,0.0006404162259269999,0.0008425410100149999,0.999999357645,"(9.054919480888657e-09, 5.992895069084625e-10, -3.5864089475978744e-09, 4.0383751898076525e-11, -1.7358645076903656e-10, 3.2024211841369388e-12, 5.992891738415551e-10, 2.7938220625856047e-09, -3.7249744955225594e-10, -8.29759386200557e-11, -6.896283544222115e-11, -2.0058402161460265e-10, -3.586407615330245e-09, -3.7249761608570964e-10, 3.0187830013517214e-09, 1.5879441858657195e-11, 2.1657538262775944e-10, 3.3028919876887386e-11, 4.038357842572893e-11, -8.297600800899474e-11, 1.5879493900361474e-11, 1.3573644985775957e-10, 2.8531380383278737e-11, 1.934800410163806e-12, -1.7358664505806587e-10, -6.896294646452361e-11, 2.1657560467236436e-10, 2.8531385587449165e-11, 6.38262706575965e-11, 1.737853090599817e-11, 3.202337917410092e-12, -2.0058420202584415e-10, 3.302896151025081e-11, 1.934809517462055e-12, 1.7378536110168596e-11, 6.977403377295133e-11)",0.0,0.0,0.0,0.0,0.0,0.0,"(0.0, 0.0, 0.0, 0.0, 0.0, 0.0, 0.0, 0.0, 0.0, 0.0, 0.0, 0.0, 0.0, 0.0, 0.0, 0.0, 0.0, 0.0, 0.0, 0.0, 0.0, 0.0, 0.0, 0.0, 0.0, 0.0, 0.0, 0.0, 0.0, 0.0, 0.0, 0.0, 0.0, 0.0, 0.0, 0.0)",0.0016856029225055143
15,2019/07/11/08:55:07.678073,15,1562828106,567884263,odom,base_link,0.181490529569,-0.0847370726843,0.0850327114456,0.000405834132196,0.0006404162259269999,0.0008425410100149999,0.999999357645,"(1.7201772450903263e-08, 1.1384795328694963e-09, -6.813157149565541e-09, 7.671764612471321e-11, -3.297648820677068e-10, 6.083689975400208e-12, 1.1384788667356815e-09, 5.307467354498385e-09, -7.07639169483798e-10, -1.5763068628160681e-10, -1.3100978635272043e-10, -3.8105257837983686e-10, -6.813154485030282e-09, -7.076395025507054e-10, 5.7348290560810256e-09, 3.016642144415549e-11, 4.11431611002655e-10, 6.274555874874466e-11, 7.671731305780582e-11, -1.5763081118169708e-10, 3.0166522058117096e-11, 2.578606217440438e-10, 5.420150786528133e-11, 3.67557026481613e-12, -3.297652428901898e-10, -1.3100998064174973e-10, 4.1143205509186487e-10, 5.4201518273622185e-11, 1.2125175863353377e-10, 3.3014264932962334e-11, 6.0835312482021564e-12, -3.8105291144674425e-10, 6.27456281376837e-11, 3.67558761205089e-12, 3.301427534130319e-11, 1.3255081754426357e-10)",0.0,0.0,0.0,0.0,0.0,0.0,"(0.0, 0.0, 0.0, 0.0, 0.0, 0.0, 0.0, 0.0, 0.0, 0.0, 0.0, 0.0, 0.0, 0.0, 0.0, 0.0, 0.0, 0.0, 0.0, 0.0, 0.0, 0.0, 0.0, 0.0, 0.0, 0.0, 0.0, 0.0, 0.0, 0.0, 0.0, 0.0, 0.0, 0.0, 0.0, 0.0)",0.0016856029225055143
16,2019/07/11/08:55:08.701372,16,1562828107,567862263,odom,base_link,0.181872756888,-0.08407265836639999,0.0842433162435,0.000405834132196,0.0006404162259269999,0.0008425410100149999,0.999999357645,"(1.7034327726150877e-08, 1.127397508682293e-09, -6.746836866966532e-09, 7.5970861546093e-11, -3.265549219921837e-10, 6.02447085273905e-12, 1.1273967315261757e-09, 5.2558033480920585e-09, -7.007509017498137e-10, -1.56096274794848e-10, -1.2973452867548474e-10, -3.7734337876571544e-10, -6.746834202431273e-09, -7.007512348167211e-10, 5.679005266046033e-09, 2.987277786248299e-11, 4.074267034859247e-10, 6.213478342953493e-11, 7.597053541807952e-11, -1.5609641357272608e-10, 2.9872875006997646e-11, 2.5535057401882e-10, 5.367390559785079e-11, 3.639791593124109e-12, -3.265552550590911e-10, -1.2973470908672624e-10, 4.074270920639833e-10, 5.3673912536744695e-11, 1.2007146665826696e-10, 3.2692897000696775e-11, 6.024312992902736e-12, -3.773436840770472e-10, 6.213485281847397e-11, 3.6398089403588685e-12, 3.269291087848458e-11, 1.3126055797840763e-10)",0.0,0.0,0.0,0.0,0.0,0.0,"(0.0, 0.0, 0.0, 0.0, 0.0, 0.0, 0.0, 0.0, 0.0, 0.0, 0.0, 0.0, 0.0, 0.0, 0.0, 0.0, 0.0, 0.0, 0.0, 0.0, 0.0, 0.0, 0.0, 0.0, 0.0, 0.0, 0.0, 0.0, 0.0, 0.0, 0.0, 0.0, 0.0, 0.0, 0.0, 0.0)",0.0016856029225055143
17,2019/07/11/08:55:09.722329,17,1562828108,634616263,odom,base_link,0.18228985926199998,-0.08345981600810001,0.0835075111503,0.000405834132196,0.0006404162259269999,0.0008425410100149999,0.999999357645,"(1.6489085652438007e-08, 1.1282494938313903e-09, -6.53471854406007e-09, 7.378014171832703e-11, -3.1525132504484077e-10, 5.304253130472558e-12, 1.1282496048536927e-09, 5.0507971138813446e-09, -6.868440816099053e-10, -1.538724703209482e-10, -1.2733726573177506e-10, -3.6639688505424317e-10, -6.53471854406007e-09, -6.868441371210565e-10, 5.551102688627907e-09, 2.992697409331946e-11, 3.9890457603775076e-10, 6.101686517157034e-11, 7.378010008496361e-11, -1.5387252583209943e-10, 2.9926967154425554e-11, 2.517361041842747e-10, 5.296346694549925e-11, 3.6060698697937266e-12, -3.1525143606714323e-10, -1.2733730736513849e-10, 3.989046870600532e-10, 5.296348082328706e-11, 1.1822241796632937e-10, 3.220584215979372e-11, 5.3040800918058295e-12, -3.663969405653944e-10, 6.10169692549789e-11, 3.6060772423684995e-12, 3.2205856037581526e-11, 1.2917567016046405e-10)",0.0,0.0,0.0,0.0,0.0,0.0,"(0.0, 0.0, 0.0, 0.0, 0.0, 0.0, 0.0, 0.0, 0.0, 0.0, 0.0, 0.0, 0.0, 0.0, 0.0, 0.0, 0.0, 0.0, 0.0, 0.0, 0.0, 0.0, 0.0, 0.0, 0.0, 0.0, 0.0, 0.0, 0.0, 0.0, 0.0, 0.0, 0.0, 0.0, 0.0, 0.0)",0.0016856029225055143
18,2019/07/11/08:55:10.768622,18,1562828109,634645263,odom,base_link,0.18263362125,-0.0830175520731,0.0829165444765,0.000405834132196,0.0006404162259269999,0.0008425410100149999,0.999999357645,"(2.1558950180633474e-08, 1.5326238056445618e-09, -8.550735230983264e-09, 9.691403235478901e-11, -4.107654771878799e-10, 6.214088705408516e-12, 1.5326249158675864e-09, 6.549067954608745e-09, -9.117565591409971e-10, -2.05637132322245e-10, -1.6928414225958477e-10, -4.809306841657701e-10, -8.550737895518523e-09, -9.117566701632995e-10, 7.341920404968505e-09, 4.0557474045854747e-11, 5.285720749981238e-10, 8.114041383233683e-11, 9.691439317727202e-11, -2.0563706293330597e-10, 4.055731792074191e-11, 3.3611982641623683e-10, 7.080293296102269e-11, 4.837349271147318e-12, -4.1076519963212377e-10, -1.6928397572613108e-10, 5.285718529535188e-10, 7.080297459438611e-11, 1.5763179650463144e-10, 4.296230038391968e-11, 6.213830665291464e-12, -4.80930406610014e-10, 8.114060118247224e-11, 4.837344500657759e-12, 4.29623281394953e-11, 1.721441322821704e-10)",0.0,0.0,0.0,0.0,0.0,0.0,"(0.0, 0.0, 0.0, 0.0, 0.0, 0.0, 0.0, 0.0, 0.0, 0.0, 0.0, 0.0, 0.0, 0.0, 0.0, 0.0, 0.0, 0.0, 0.0, 0.0, 0.0, 0.0, 0.0, 0.0, 0.0, 0.0, 0.0, 0.0, 0.0, 0.0, 0.0, 0.0, 0.0, 0.0, 0.0, 0.0)",0.0016856029225055143
19,2019/07/11/08:55:11.834519,19,1562828110,701388263,odom,base_link,0.18296797296,-0.0826333150846,0.08237637435430001,0.000405834132196,0.0006404162259269999,0.0008425410100149999,0.999999357645,"(4.3715843389691145e-08, 2.9605917717390184e-09, -1.732055210368344e-08, 1.9563078934581313e-10, -8.365609871496815e-10, 1.4483049308455787e-11, 2.9605924378728332e-09, 1.3420722311252575e-08, -1.8138649471310941e-09, -4.057260916123795e-10, -3.3619476647039903e-10, -9.705091175149505e-10, -1.7320559209110797e-08, -1.8138652801980015e-09, 1.4672011161565024e-08, 7.85667017555447e-11, 1.053847786813833e-09, 1.6104799438476647e-10, 1.956314693574157e-10, -4.057260638568039e-10, 7.8566535222091e-11, 6.635468841054148e-10, 1.3965049949771213e-10, 9.535895510726089e-12, -8.365613202165889e-10, -3.3619443340349164e-10, 1.0538483419253453e-09, 1.3965051337549994e-10, 3.1177335713117316e-10, 8.491529007725873e-11, 1.4483009409815839e-11, -9.705083403588333e-10, 1.610480360181299e-10, 9.535868622512211e-12, 8.491530395504654e-11, 3.4072891730296817e-10)",0.0,0.0,0.0,0.0,0.0,0.0,"(0.0, 0.0, 0.0, 0.0, 0.0, 0.0, 0.0, 0.0, 0.0, 0.0, 0.0, 0.0, 0.0, 0.0, 0.0, 0.0, 0.0, 0.0, 0.0, 0.0, 0.0, 0.0, 0.0, 0.0, 0.0, 0.0, 0.0, 0.0, 0.0, 0.0, 0.0, 0.0, 0.0, 0.0, 0.0, 0.0)",0.0016856029225055143
20,2019/07/11/08:55:12.867239,20,1562828111,768160263,odom,base_link,0.18328323671500002,-0.0824056327787,0.08187646093510001,0.00040591230498000005,0.0006403666808559999,0.000964611236916,0.999999247345,"(7.70173969044663e-08, 5.096963739958937e-09, -3.049967034485235e-08, 3.43993056262093e-10, -1.47681356033047e-09, 2.7104936350941244e-11, 5.096965072226567e-09, 2.3761600687066675e-08, -3.1678195622220073e-09, -7.054593020860978e-10, -5.86543980052312e-10, -1.7060274304370182e-09, -3.049968455570706e-08, -3.1678195622220073e-09, 2.5670622960660694e-08, 1.35257735567329e-10, 1.8418085945270946e-09, 2.808702714851563e-10, 3.439941942406932e-10, -7.054594686195514e-10, 1.3525756903387531e-10, 1.1541176903051564e-09, 2.4281288091287934e-10, 1.65805823931775e-11, -1.476815003620402e-09, -5.865434249407997e-10, 1.841810148839329e-09, 2.428128254017281e-10, 5.427828186910233e-10, 1.4778263335291086e-10, 2.7105267683125156e-11, -1.7060263202139936e-09, 2.80870077196127e-10, 1.658051820840889e-11, 1.4778263335291086e-10, 5.934116531491895e-10)",0.0,0.0,0.0,0.0,0.0,0.0,"(0.0, 0.0, 0.0, 0.0, 0.0, 0.0, 0.0, 0.0, 0.0, 0.0, 0.0, 0.0, 0.0, 0.0, 0.0, 0.0, 0.0, 0.0, 0.0, 0.0, 0.0, 0.0, 0.0, 0.0, 0.0, 0.0, 0.0, 0.0, 0.0, 0.0, 0.0, 0.0, 0.0, 0.0, 0.0, 0.0)",0.0019297436656430268
21,2019/07/11/08:55:13.873986,21,1562828112,768162263,odom,base_link,0.183404003272,-0.08210045838560001,0.0814645206235,0.00040591230498000005,0.0006403666808559999,0.000964611236916,0.999999247345,"(8.625417535768065e-08, 5.897914157060313e-09, -3.4188492037401375e-08, 3.863637187961899e-10, -1.6490947496450303e-09, 2.7826612541970164e-11, 5.897917265684782e-09, 2.642871166358418e-08, -3.592982800171285e-09, -8.051687649945904e-10, -6.661479701186579e-10, -1.9169841269928156e-09, -3.418850624825609e-08, -3.59298302221589e-09, 2.904022267102846e-08, 1.565135937520168e-10, 2.0866679495412654e-09, 3.191633624055612e-10, 3.8636502330824385e-10, -8.051688760168929e-10, 1.5651321905174598e-10, 1.316249331750896e-09, 2.770704776722255e-10, 1.8877510665760155e-11, -1.6490951937342402e-09, -6.661474150071456e-10, 2.0866683936304753e-09, 2.770704776722255e-10, 6.182033773782791e-10, 1.683786721162761e-10, 2.782634192510791e-11, -1.916982794725186e-09, 3.1916358445016613e-10, 1.8877462093502828e-11, 1.6837872762742734e-10, 6.755334069907803e-10)",0.0,0.0,0.0,0.0,0.0,0.0,"(0.0, 0.0, 0.0, 0.0, 0.0, 0.0, 0.0, 0.0, 0.0, 0.0, 0.0, 0.0, 0.0, 0.0, 0.0, 0.0, 0.0, 0.0, 0.0, 0.0, 0.0, 0.0, 0.0, 0.0, 0.0, 0.0, 0.0, 0.0, 0.0, 0.0, 0.0, 0.0, 0.0, 0.0, 0.0, 0.0)",0.0019297436656430268
22,2019/07/11/08:55:14.885618,22,1562828113,768267263,odom,base_link,0.18351426942899998,-0.08185735154450001,0.081095528205,0.00040591230498000005,0.0006403666808559999,0.000964611236916,0.999999247345,"(6.004831476502659e-08, 4.2669250355231725e-09, -2.381961117237097e-08, 2.699173384801412e-10, -1.1440817182517549e-09, 1.7338644409115034e-11, 4.2669281441476414e-09, 1.824144213458112e-08, -2.539186860772702e-09, -5.728806318217039e-10, -4.714827417373613e-10, -1.339523603149928e-09, -2.3819621830512006e-08, -2.539186638728097e-09, 2.045292113450614e-08, 1.1298808416659867e-10, 1.4723613439571182e-09, 2.2599443150195242e-10, 2.6991828216971214e-10, -5.728805207994014e-10, 1.1298763313849491e-10, 9.36243971239037e-10, 1.9721124733251827e-10, 1.3445028076985999e-11, -1.1440808300733352e-09, -4.714822976481514e-10, 1.4723606778233034e-09, 1.9721133059924512e-10, 4.3907075197857637e-10, 1.1965885227116502e-10, 1.7337922764149027e-11, -1.3395228259938108e-09, 2.2599495885788912e-10, 1.3445014199198191e-11, 1.1965893553789186e-10, 4.794822316966929e-10)",0.0,0.0,0.0,0.0,0.0,0.0,"(0.0, 0.0, 0.0, 0.0, 0.0, 0.0, 0.0, 0.0, 0.0, 0.0, 0.0, 0.0, 0.0, 0.0, 0.0, 0.0, 0.0, 0.0, 0.0, 0.0, 0.0, 0.0, 0.0, 0.0, 0.0, 0.0, 0.0, 0.0, 0.0, 0.0, 0.0, 0.0, 0.0, 0.0, 0.0, 0.0)",0.0019297436656430268
23,2019/07/11/08:55:15.920808,23,1562828114,768272263,odom,base_link,0.18341922554099999,-0.0816334549267,0.0809254502856,0.00040591230498000005,0.0006403666808559999,0.000964611236916,0.999999247345,"(3.2278975936606e-08, 2.292794398783826e-09, -1.2804703075630641e-08, 1.4510553869584442e-10, -6.149468156912974e-10, 9.284263462194797e-12, 2.2927959530960607e-09, 9.806588430194552e-09, -1.3648555619028002e-09, -3.0815011653473334e-10, -2.5349061738566547e-10, -7.201947926915864e-10, -1.280470840470116e-08, -1.3648552288358928e-09, 1.0995705679306411e-08, 6.091897819526793e-11, 7.916306499211601e-10, 1.2151707418084357e-10, 1.451060521739933e-10, -3.081500332680065e-10, 6.09187492117691e-11, 5.032917416158966e-10, 1.0600544747552121e-10, 7.225295448748392e-12, -6.149463160909363e-10, -2.5349036758548493e-10, 7.91630150320799e-10, 1.0600549604777854e-10, 2.360226458719694e-10, 6.432305382775283e-11, 9.283875751497916e-12, -7.201944041135278e-10, 1.2151737949217534e-10, 7.22528764249275e-12, 6.432310240001016e-11, 2.5774676837286847e-10)",0.0,0.0,0.0,0.0,0.0,0.0,"(0.0, 0.0, 0.0, 0.0, 0.0, 0.0, 0.0, 0.0, 0.0, 0.0, 0.0, 0.0, 0.0, 0.0, 0.0, 0.0, 0.0, 0.0, 0.0, 0.0, 0.0, 0.0, 0.0, 0.0, 0.0, 0.0, 0.0, 0.0, 0.0, 0.0, 0.0, 0.0, 0.0, 0.0, 0.0, 0.0)",0.0019297436656430268
24,2019/07/11/08:55:16.967535,24,1562828115,835029263,odom,base_link,0.183287563403,-0.08145227334489999,0.0808214531465,0.00040591230498000005,0.0006403666808559999,0.000964611236916,0.999999247345,"(2.7525050683152585e-08, 1.9524200034481964e-09, -1.0911067604979507e-08, 1.22020782367116e-10, -5.243391276721354e-10, 8.056726293059757e-12, 1.952421335715826e-09, 8.366335180198803e-09, -1.1613483508199351e-09, -2.63139399159229e-10, -2.1615577383560236e-10, -6.14460649028814e-10, -1.0911067604979507e-08, -1.1613474626415154e-09, 9.36347177571406e-09, 5.4474546401506174e-11, 6.75216715873006e-10, 1.0341368039679111e-10, 1.2202093502278188e-10, -2.6313948242595586e-10, 5.4474567218187886e-11, 4.291192956529244e-10, 9.043438914391189e-11, 6.1880934404401344e-12, -5.24338794605228e-10, -2.1615571832445113e-10, 6.75216937917611e-10, 9.043439608280579e-11, 2.0140507317467637e-10, 5.4894960105356105e-11, 8.056586647819941e-12, -6.144604824953603e-10, 1.0341379141909357e-10, 6.188079996333196e-12, 5.4894977452590865e-11, 2.1993851184731739e-10)",0.0,0.0,0.0,0.0,0.0,0.0,"(0.0, 0.0, 0.0, 0.0, 0.0, 0.0, 0.0, 0.0, 0.0, 0.0, 0.0, 0.0, 0.0, 0.0, 0.0, 0.0, 0.0, 0.0, 0.0, 0.0, 0.0, 0.0, 0.0, 0.0, 0.0, 0.0, 0.0, 0.0, 0.0, 0.0, 0.0, 0.0, 0.0, 0.0, 0.0, 0.0)",0.0019297436656430268
25,2019/07/11/08:55:17.994633,25,1562828116,901783263,odom,base_link,0.18313242481699998,-0.08130509270030001,0.0807656177652,0.00040591230498000005,0.0006403666808559999,0.000964611236916,0.999999247345,"(4.059216962559731e-08, 2.874877225167438e-09, -1.6083562925928163e-08, 1.7779519523308807e-10, -7.73443031842902e-10, 1.182124797355355e-11, 2.8748794456134874e-09, 1.2341903499191176e-08, -1.7089887283106009e-09, -3.8800540558270313e-10, -3.184107144615922e-10, -9.064299311134505e-10, -1.6083557596857645e-08, -1.708986618886854e-09, 1.3796265463383861e-08, 8.275125723544718e-11, 9.958910363039308e-10, 1.5226891969533085e-10, 1.7779505645521e-10, -3.880055443605812e-10, 8.275156948567286e-11, 6.32258412291975e-10, 1.3308007473789019e-10, 9.01629639005197e-12, -7.734438645101704e-10, -3.184105479281385e-10, 9.95892257549258e-10, 1.3308004698231457e-10, 2.969809953512481e-10, 8.092061742903667e-11, 1.1820792608641106e-11, -9.064297090688456e-10, 1.5226930827338947e-10, 9.016291185881542e-12, 8.092065906240009e-11, 3.2446173525713107e-10)",0.0,0.0,0.0,0.0,0.0,0.0,"(0.0, 0.0, 0.0, 0.0, 0.0, 0.0, 0.0, 0.0, 0.0, 0.0, 0.0, 0.0, 0.0, 0.0, 0.0, 0.0, 0.0, 0.0, 0.0, 0.0, 0.0, 0.0, 0.0, 0.0, 0.0, 0.0, 0.0, 0.0, 0.0, 0.0, 0.0, 0.0, 0.0, 0.0, 0.0, 0.0)",0.0019297436656430268
26,2019/07/11/08:55:18.988412,26,1562828117,901786263,odom,base_link,0.18303930309099997,-0.0811673564025,0.08070569849560001,0.00040591230498000005,0.0006403666808559999,0.000964611236916,0.999999247345,"(4.8312081446511e-08, 3.424439620758335e-09, -1.9137313955752688e-08, 2.117281627800338e-10, -9.205723960903356e-10, 1.413112682424611e-11, 3.4244418412043842e-09, 1.468795840509074e-08, -2.0349772977823477e-09, -4.6156586885892636e-10, -3.790590064056687e-10, -1.0787225557251645e-09, -1.913731217939585e-08, -2.0349746332470886e-09, 1.641425839693511e-08, 9.847838516874319e-11, 1.1850725956108477e-09, 1.812145988822067e-10, 2.1172805175773135e-10, -4.6156603539238006e-10, 9.84787529301201e-11, 7.525194911650601e-10, 1.5845731671237928e-10, 1.078760865358408e-11, -9.205731732464528e-10, -3.79058839872215e-10, 1.1850738168561747e-09, 1.5845728895680367e-10, 3.534906811708538e-10, 9.633532860320315e-11, 1.4130668857248452e-11, -1.078722444702862e-09, 1.812149597046897e-10, 1.0787598245243224e-11, 9.633536329767267e-11, 3.861486130851688e-10)",0.0,0.0,0.0,0.0,0.0,0.0,"(0.0, 0.0, 0.0, 0.0, 0.0, 0.0, 0.0, 0.0, 0.0, 0.0, 0.0, 0.0, 0.0, 0.0, 0.0, 0.0, 0.0, 0.0, 0.0, 0.0, 0.0, 0.0, 0.0, 0.0, 0.0, 0.0, 0.0, 0.0, 0.0, 0.0, 0.0, 0.0, 0.0, 0.0, 0.0, 0.0)",0.0019297436656430268
27,2019/07/11/08:55:19.990987,27,1562828118,901796263,odom,base_link,0.18306800350400002,-0.08102765705510001,0.0806124854144,0.00040591230498000005,0.0006403666808559999,0.000964611236916,0.999999247345,"(4.239814188622404e-08, 3.097228251647266e-09, -1.6807272018581898e-08, 1.8747382812822622e-10, -8.09102673748896e-10, 8.767138057197421e-12, 3.0972295839148956e-09, 1.2875634780584733e-08, -1.8228648590579155e-09, -4.0274270030060677e-10, -3.3389127573890676e-10, -9.43482625359593e-10, -1.6807272018581898e-08, -1.8228639708794958e-09, 1.4385070912226183e-08, 8.302167286977635e-11, 1.0369587410963277e-09, 1.5998152802509935e-10, 1.874739807838921e-10, -4.0274281132290923e-10, 8.30217561365032e-11, 6.577856037637275e-10, 1.3853598823665436e-10, 9.469950865148569e-12, -8.091031178381058e-10, -3.338914977835117e-10, 1.036959518252445e-09, 1.3853598823665436e-10, 3.0883098856016034e-10, 8.424397290873742e-11, 8.766893461187308e-12, -9.434831804711052e-10, 1.599816112918262e-10, 9.469933517913809e-12, 8.424397290873742e-11, 3.371515844285966e-10)",0.0,0.0,0.0,0.0,0.0,0.0,"(0.0, 0.0, 0.0, 0.0, 0.0, 0.0, 0.0, 0.0, 0.0, 0.0, 0.0, 0.0, 0.0, 0.0, 0.0, 0.0, 0.0, 0.0, 0.0, 0.0, 0.0, 0.0, 0.0, 0.0, 0.0, 0.0, 0.0, 0.0, 0.0, 0.0, 0.0, 0.0, 0.0, 0.0, 0.0, 0.0)",0.0019297436656430268
28,2019/07/11/08:55:21.005651,28,1562828119,901929263,odom,base_link,0.183131339019,-0.0809091915315,0.0804950492755,0.00040591230498000005,0.0006403666808559999,0.000964611236916,0.999999247345,"(3.3052899084395904e-08, 2.4383104424430257e-09, -1.3112177121854529e-08, 1.479011635385774e-10, -6.310704181444748e-10, 5.963831858912805e-12, 2.4383115526660504e-09, 1.0030707819908002e-08, -1.4317848018308155e-09, -3.1292343716238236e-10, -2.6051574786301046e-10, -7.344784780372038e-10, -1.3112178898211369e-08, -1.431784912853118e-09, 1.1221086282375836e-08, 6.146032988096906e-11, 8.07506894684451e-10, 1.251115877565212e-10, 1.479006223048529e-10, -3.129234926735336e-10, 6.146068376455815e-11, 5.122148261094139e-10, 1.0776494280273496e-10, 7.316181514782638e-12, -6.31071417345197e-10, -2.605157756185861e-10, 8.075073387736609e-10, 1.0776490810826544e-10, 2.4030943901465207e-10, 6.556165332849417e-11, 5.963443280854186e-12, -7.344784780372038e-10, 1.251117820455505e-10, 7.316161565462664e-12, 6.556166720628198e-11, 2.62317501054099e-10)",0.0,0.0,0.0,0.0,0.0,0.0,"(0.0, 0.0, 0.0, 0.0, 0.0, 0.0, 0.0, 0.0, 0.0, 0.0, 0.0, 0.0, 0.0, 0.0, 0.0, 0.0, 0.0, 0.0, 0.0, 0.0, 0.0, 0.0, 0.0, 0.0, 0.0, 0.0, 0.0, 0.0, 0.0, 0.0, 0.0, 0.0, 0.0, 0.0, 0.0, 0.0)",0.0019297436656430268
29,2019/07/11/08:55:22.055383,29,1562828120,901927263,odom,base_link,0.18324555638599999,-0.0808020072545,0.08034706196210001,0.00040591230498000005,0.0006403666808559999,0.000964611236916,0.999999247345,"(3.256325697975626e-08, 2.3140438454305468e-09, -1.2914242120132258e-08, 1.4609280452049234e-10, -6.203667024529125e-10, 9.415450190342067e-12, 2.3140451776981763e-09, 9.890941399248732e-09, -1.37658484611336e-09, -3.105141699322189e-10, -2.5561722183375934e-10, -7.263294965476064e-10, -1.2914243896489097e-08, -1.3765840689572428e-09, 1.1088242324319708e-08, 6.122426177146423e-11, 7.983366745456522e-10, 1.2256352877049181e-10, 1.4609123633047005e-10, -3.105142809545214e-10, 6.122517076656564e-11, 5.078191755991668e-10, 1.0686031920448258e-10, 7.272150763515395e-12, -6.203674240978785e-10, -2.5561683325570073e-10, 7.983371741460132e-10, 1.0686021512107402e-10, 2.381127239825531e-10, 6.491090304150404e-11, 9.415117990796418e-12, -7.263286638803379e-10, 1.2256383408182359e-10, 7.272109997513709e-12, 6.491093773597356e-11, 2.600093473859033e-10)",0.0,0.0,0.0,0.0,0.0,0.0,"(0.0, 0.0, 0.0, 0.0, 0.0, 0.0, 0.0, 0.0, 0.0, 0.0, 0.0, 0.0, 0.0, 0.0, 0.0, 0.0, 0.0, 0.0, 0.0, 0.0, 0.0, 0.0, 0.0, 0.0, 0.0, 0.0, 0.0, 0.0, 0.0, 0.0, 0.0, 0.0, 0.0, 0.0, 0.0, 0.0)",0.0019297436656430268
30,2019/07/11/08:55:23.088435,30,1562828121,968692263,odom,base_link,0.183370032851,-0.0807089698784,0.0802524407305,0.00040591230498000005,0.0006403666808559999,0.000964611236916,0.999999247345,"(4.8231214577754145e-08, 3.2788851633824834e-09, -1.911088709505293e-08, 2.15790343927047e-10, -9.225715191796269e-10, 1.5855169607781328e-11, 3.278886051560903e-09, 1.4795253022725774e-08, -2.0041213133481506e-09, -4.4864817416723213e-10, -3.7152031451270773e-10, -1.0711577180799736e-09, -1.911089242412345e-08, -2.0041213133481506e-09, 1.6205527586521384e-08, 8.692695868672828e-11, 1.1642184993831961e-09, 1.7798944262903404e-10, 2.1578989983783714e-10, -4.486482851895346e-10, 8.692739583704423e-11, 7.336762308796096e-10, 1.5436410483182783e-10, 1.052480845531445e-11, -9.225724628691978e-10, -3.715199259346491e-10, 1.1642193875616158e-09, 1.5436400768731318e-10, 3.446496421588563e-10, 9.388050753456056e-11, 1.5855117566077048e-11, -1.071156829901554e-09, 1.779895397735487e-10, 1.052476075041886e-11, 9.388051447345447e-11, 3.766297829166376e-10)",0.0,0.0,0.0,0.0,0.0,0.0,"(0.0, 0.0, 0.0, 0.0, 0.0, 0.0, 0.0, 0.0, 0.0, 0.0, 0.0, 0.0, 0.0, 0.0, 0.0, 0.0, 0.0, 0.0, 0.0, 0.0, 0.0, 0.0, 0.0, 0.0, 0.0, 0.0, 0.0, 0.0, 0.0, 0.0, 0.0, 0.0, 0.0, 0.0, 0.0, 0.0)",0.0019297436656430268
31,2019/07/11/08:55:24.137237,31,1562828122,968688263,odom,base_link,0.183421823531,-0.08062479899839999,0.08014109259430001,0.00040591230498000005,0.0006403666808559999,0.000964611236916,0.999999247345,"(6.866365254154516e-08, 4.7695389859825355e-09, -2.7205819819187127e-08, 3.0661984062874126e-10, -1.3122625208694672e-09, 2.0387892762929738e-11, 4.769540762339375e-09, 2.0990185589653265e-08, -2.8774829186062334e-09, -6.426822962701806e-10, -5.320897056293461e-10, -1.525164106119803e-09, -2.7205823371900806e-08, -2.8774824745170235e-09, 2.3138284177548485e-08, 1.255132803246184e-10, 1.6633313615344036e-09, 2.548666555579615e-10, 3.0661984062874126e-10, -6.426822407590294e-10, 1.2551372441382824e-10, 1.0504856984283606e-09, 2.2115660691657268e-10, 1.5102932793276125e-11, -1.312263187003282e-09, -5.320892615401362e-10, 1.6633324717574283e-09, 2.2115656528320926e-10, 4.932895203424437e-10, 1.3439849233520818e-10, 2.0388432261930767e-11, -1.5251634399859881e-09, 2.5486640575778097e-10, 1.51028911599127e-11, 1.3439849233520818e-10, 5.389194646099327e-10)",0.0,0.0,0.0,0.0,0.0,0.0,"(0.0, 0.0, 0.0, 0.0, 0.0, 0.0, 0.0, 0.0, 0.0, 0.0, 0.0, 0.0, 0.0, 0.0, 0.0, 0.0, 0.0, 0.0, 0.0, 0.0, 0.0, 0.0, 0.0, 0.0, 0.0, 0.0, 0.0, 0.0, 0.0, 0.0, 0.0, 0.0, 0.0, 0.0, 0.0, 0.0)",0.0019297436656430268
32,2019/07/11/08:55:25.166128,32,1562828124,35440263,odom,base_link,0.183595886105,-0.0809201747641,0.08021879974769999,0.00040591230498000005,0.0006403666808559999,0.000964611236916,0.999999247345,"(8.65894875801132e-08, 5.9583795675166584e-09, -3.430887929312121e-08, 3.8693423465296917e-10, -1.655625192498178e-09, 2.7121834292320735e-11, 5.958381343873498e-09, 2.652260988611488e-08, -3.616259958150181e-09, -8.074769186627861e-10, -6.688076203964499e-10, -1.9221477742803472e-09, -3.4308886398548566e-08, -3.616259514060971e-09, 2.9117545707890713e-08, 1.5613080273091384e-10, 2.091890882738312e-09, 3.201919840378764e-10, 3.869344566975741e-10, -8.074770296850886e-10, 1.5613120518676027e-10, 1.3191736591977588e-09, 2.7772861788122327e-10, 1.892645241918789e-11, -1.6556263027212026e-09, -6.688070097737864e-10, 2.0918926590951514e-09, 2.7772859012564766e-10, 6.196754220866296e-10, 1.6878806685660663e-10, 2.7122444914984278e-11, -1.9221468861019275e-09, 3.201917619932715e-10, 1.8926398642760134e-11, 1.6878808073439444e-10, 6.770902727382122e-10)",0.0,0.0,0.0,0.0,0.0,0.0,"(0.0, 0.0, 0.0, 0.0, 0.0, 0.0, 0.0, 0.0, 0.0, 0.0, 0.0, 0.0, 0.0, 0.0, 0.0, 0.0, 0.0, 0.0, 0.0, 0.0, 0.0, 0.0, 0.0, 0.0, 0.0, 0.0, 0.0, 0.0, 0.0, 0.0, 0.0, 0.0, 0.0, 0.0, 0.0, 0.0)",0.0019297436656430268
33,2019/07/11/08:55:26.353449,33,1562828125,102205263,odom,base_link,0.182726380541,-0.0709961469413,0.0823172216658,-0.00706419412566,0.00669803092559,0.00258664522437,0.999949270118,"(8.970967428467702e-06, 6.176935585244792e-07, -3.6727376482303953e-06, 4.493686844853073e-08, -1.6698621152499982e-07, 8.225192971167417e-09, 6.17693615367898e-07, 2.730613687162986e-06, -4.0530920841774787e-07, -9.109194110124008e-08, -7.413829905544844e-08, -1.991424198877212e-07, -3.6727376482303953e-06, -4.0530949263484217e-07, 3.176341579091968e-06, 1.7610590319350194e-08, 2.2525483700519544e-07, 3.349799371221707e-08, 4.493699279350949e-08, -9.109193399581272e-08, 1.7610592095707034e-08, 1.4341165410769463e-07, 3.190665864849507e-08, 1.2957426243076497e-09, -1.6698632521183754e-07, -7.413841984771352e-08, 2.2525483700519544e-07, 3.190665154306771e-08, 6.762660120784858e-08, 1.825592299553591e-08, 8.225205405665292e-09, -1.9914234883344761e-07, 3.3497940421511885e-08, 1.2957318551443109e-09, 1.8255917666465393e-08, 7.17624573098874e-08)",0.0,0.0,0.0,0.0,0.0,0.0,"(0.0, 0.0, 0.0, 0.0, 0.0, 0.0, 0.0, 0.0, 0.0, 0.0, 0.0, 0.0, 0.0, 0.0, 0.0, 0.0, 0.0, 0.0, 0.0, 0.0, 0.0, 0.0, 0.0, 0.0, 0.0, 0.0, 0.0, 0.0, 0.0, 0.0, 0.0, 0.0, 0.0, 0.0, 0.0, 0.0)",0.005078875637396779
34,2019/07/11/08:55:27.576741,34,1562828126,235586263,odom,base_link,0.17895684272,-0.10254456647500002,0.10185392309,-0.0089281916339,0.010562108454,0.00274434932831,0.999900593962,"(1.775384043867234e-05, 1.2600471563928295e-06, -7.102567906258628e-06, 8.59590159052459e-08, -3.312492253826349e-07, 1.277023287116208e-08, 1.260046929019154e-06, 5.399576366471592e-06, -7.696885973018652e-07, -1.8027903081474506e-07, -1.4571850215361337e-07, -3.974774926973623e-07, -7.102566996763926e-06, -7.69689108892635e-07, 6.101606231823098e-06, 3.201697040822182e-08, 4.374303443910321e-07, 6.707756483592675e-08, 8.595920775178456e-08, -1.8027901660389034e-07, 3.2016966855508144e-08, 2.827752609846357e-07, 6.213178949110443e-08, 4.697017885746391e-09, -3.3124879905699345e-07, -1.457185305753228e-07, 4.374300317522284e-07, 6.2131761069395e-08, 1.3204254400989157e-07, 3.6413503323728946e-08, 1.2770247082016795e-08, -3.974773790105246e-07, 6.707749378165317e-08, 4.697001454445626e-09, 3.6413503323728946e-08, 1.42540017122883e-07)",0.0,0.0,0.0,0.0,0.0,0.0,"(0.0, 0.0, 0.0, 0.0, 0.0, 0.0, 0.0, 0.0, 0.0, 0.0, 0.0, 0.0, 0.0, 0.0, 0.0, 0.0, 0.0, 0.0, 0.0, 0.0, 0.0, 0.0, 0.0, 0.0, 0.0, 0.0, 0.0, 0.0, 0.0, 0.0, 0.0, 0.0, 0.0, 0.0, 0.0, 0.0)",0.005300764886088881
35,2019/07/11/08:55:28.682514,35,1562828127,502337263,odom,base_link,0.158649987768,-0.121064713005,0.114206747318,-0.0101725937047,0.011347361259099999,0.00355096750485,0.999877565685,"(1.7066739019355737e-05, 1.2075096265107277e-06, -6.773513177904533e-06, 8.116028027416178e-08, -3.1964577829057816e-07, 1.0664291671957926e-08, 1.2075092854502145e-06, 5.2071563914068975e-06, -7.35154344511102e-07, -1.7160422771667072e-07, -1.4040327300790523e-07, -3.8537640989488864e-07, -6.77351135891513e-06, -7.351542308242642e-07, 5.8183559303870425e-06, 3.651306812457733e-08, 4.217877460632735e-07, 6.510576611162833e-08, 8.116016658732406e-08, -1.7160418508410658e-07, 3.651318891684241e-08, 2.720804843647784e-07, 5.98966494180786e-08, 5.000402314436769e-09, -3.1964512459126126e-07, -1.404031593210675e-07, 4.217872628942132e-07, 5.989663520722388e-08, 1.27299017549376e-07, 3.5291357391997735e-08, 1.0664262362070076e-08, -3.8537632462976035e-07, 6.510576611162833e-08, 5.0003929885633625e-09, 3.529136449742509e-08, 1.3748373817179527e-07)",0.0,0.0,0.0,0.0,0.0,0.0,"(0.0, 0.0, 0.0, 0.0, 0.0, 0.0, 0.0, 0.0, 0.0, 0.0, 0.0, 0.0, 0.0, 0.0, 0.0, 0.0, 0.0, 0.0, 0.0, 0.0, 0.0, 0.0, 0.0, 0.0, 0.0, 0.0, 0.0, 0.0, 0.0, 0.0, 0.0, 0.0, 0.0, 0.0, 0.0, 0.0)",0.006872036175937092
36,2019/07/11/08:55:30.017075,36,1562828128,568967263,odom,base_link,0.156073685703,-0.12379366146700001,0.11690309292199999,-0.0101725937047,0.011347361259099999,0.00355096750485,0.999877565685,"(1.848040847107768e-05, 1.295055881200824e-06, -7.31279760657344e-06, 8.692496322737497e-08, -3.4685379546317563e-07, 1.021509099530249e-08, 1.295055881200824e-06, 5.627028258459177e-06, -7.81429264407052e-07, -1.8476259810995543e-07, -1.5064824765431695e-07, -4.162774587257445e-07, -7.312797151826089e-06, -7.814289801899577e-07, 6.276607564359438e-06, 4.11321963156297e-08, 4.5507681534218136e-07, 7.000946311563894e-08, 8.692450137459673e-08, -1.8476259810995543e-07, 4.113245921644193e-08, 2.9510948706956697e-07, 6.479604763853786e-08, 5.6472035936394605e-09, -3.468534828243719e-07, -1.506483044977358e-07, 4.550765595467965e-07, 6.479601921682843e-08, 1.378042213673325e-07, 3.8282930603372733e-08, 1.0215016388315235e-08, -4.162775439908728e-07, 7.000947732649365e-08, 5.6471947118552634e-09, 3.82829199452317e-08, 1.4916807344889094e-07)",0.0,0.0,0.0,0.0,0.0,0.0,"(0.0, 0.0, 0.0, 0.0, 0.0, 0.0, 0.0, 0.0, 0.0, 0.0, 0.0, 0.0, 0.0, 0.0, 0.0, 0.0, 0.0, 0.0, 0.0, 0.0, 0.0, 0.0, 0.0, 0.0, 0.0, 0.0, 0.0, 0.0, 0.0, 0.0, 0.0, 0.0, 0.0, 0.0, 0.0, 0.0)",0.006872036175937092
37,2019/07/11/08:55:31.246152,37,1562828129,902480263,odom,base_link,0.22623795905299998,0.00677850925569,0.104416128439,-0.0328080903105,0.0230615458184,-0.0187734181953,0.999019195553,"(2.613998185552191e-05, 1.1983840977336513e-06, -1.0790110536618158e-05, 1.1050991588490433e-07, -5.111161840432032e-07, -3.699176431837259e-08, 1.1983836429863004e-06, 7.843869752832688e-06, -8.548470873392944e-07, -2.6455174406692095e-07, -1.8506271715068578e-07, -5.901462145629921e-07, -1.0790106898639351e-05, -8.548468599656189e-07, 9.28205372474622e-06, 8.553454478033018e-08, 6.603879683098057e-07, 1.095151702656949e-07, 1.1050980219806661e-07, -2.645516872235021e-07, 8.553456609661225e-08, 4.250340168709954e-07, 7.838362847678582e-08, -1.1570500113577964e-10, -5.111162408866221e-07, -1.8506288768094237e-07, 6.603876272492926e-07, 7.83836142659311e-08, 1.9200257383999997e-07, 5.4158967088824284e-08, -3.6992009455616426e-08, -5.901464419366675e-07, 1.095152555308232e-07, -1.1569611935158264e-10, 5.4158981299679e-08, 2.18780741079172e-07)",0.0,0.0,0.0,0.0,0.0,0.0,"(0.0, 0.0, 0.0, 0.0, 0.0, 0.0, 0.0, 0.0, 0.0, 0.0, 0.0, 0.0, 0.0, 0.0, 0.0, 0.0, 0.0, 0.0, 0.0, 0.0, 0.0, 0.0, 0.0, 0.0, 0.0, 0.0, 0.0, 0.0, 0.0, 0.0, 0.0, 0.0, 0.0, 0.0, 0.0, 0.0)",-0.03907246215020714
38,2019/07/11/08:55:32.588909,38,1562828131,169109263,odom,base_link,0.056987351827999994,0.125170401342,0.162586571659,-0.033437457929,0.029089445383099998,-0.0369478515003,0.9983339104950001,"(6.76499075780157e-06, -2.5021228111654636e-07, -2.535466592235025e-06, -3.1855726945195784e-09, -1.9584027199925913e-07, -6.442270716888743e-08, -2.502121105862898e-07, 2.7364235393179115e-06, 7.445517091753118e-09, -1.5536713249275635e-07, 8.16725087560144e-09, -2.609582452350878e-07, -2.5354659101139987e-06, 7.445507321790501e-09, 2.6324737518734764e-06, 2.482124195068991e-08, 2.547373867400893e-07, 1.9927590244606108e-08, -3.1855749149656276e-09, -1.5536716091446579e-07, 2.482124372704675e-08, 1.702621972299312e-07, 5.558664639693234e-11, 1.6115043521836014e-08, -1.9584048516207986e-07, 8.167258869207217e-09, 2.547374151617987e-07, 5.558731253074711e-11, 6.932209828391933e-08, -2.220896133664496e-09, -6.442270716888743e-08, -2.609581315482501e-07, 1.9927579586465072e-08, 1.6115032863694978e-08, -2.2208974659321257e-09, 9.887965291e-08)",0.0,0.0,0.0,0.0,0.0,0.0,"(0.0, 0.0, 0.0, 0.0, 0.0, 0.0, 0.0, 0.0, 0.0, 0.0, 0.0, 0.0, 0.0, 0.0, 0.0, 0.0, 0.0, 0.0, 0.0, 0.0, 0.0, 0.0, 0.0, 0.0, 0.0, 0.0, 0.0, 0.0, 0.0, 0.0, 0.0, 0.0, 0.0, 0.0, 0.0, 0.0)",-0.07590817174901494
39,2019/07/11/08:55:34.024038,39,1562828132,502614263,odom,base_link,-0.160089930501,0.08464898896430001,0.184446604223,-0.0558826213533,0.019993595047400003,-0.034932686156300005,0.997625729533,"(7.023154921625974e-06, -4.6714816903659084e-07, -2.41894599639636e-06, 6.877007052707995e-08, -2.1838155817022198e-07, 3.577965301815311e-08, -4.6714797008462483e-07, 2.6512193471717183e-06, 2.035658042132127e-08, -1.3421596634088928e-07, -2.2241314567850168e-08, -2.554588149905612e-07, -2.418945541649009e-06, 2.0356536012400284e-08, 2.393800741629093e-06, 2.269712950919711e-08, 2.688207700884959e-07, -5.250150536539877e-09, 6.877013447592617e-08, -1.3421595213003457e-07, 2.2697030033214105e-08, 1.560805173994595e-07, 2.6189232116280436e-08, 1.6800226987356837e-08, -2.1838143027252954e-07, -2.2241321673277525e-08, 2.6882071324507706e-07, 2.6189237445350955e-08, 7.939727453276646e-08, 2.484469963093261e-09, 3.577959617473425e-08, -2.554587865688518e-07, -5.25014165475568e-09, 1.6800226987356837e-08, 2.484469963093261e-09, 9.684357138439736e-08)",0.0,0.0,0.0,0.0,0.0,0.0,"(0.0, 0.0, 0.0, 0.0, 0.0, 0.0, 0.0, 0.0, 0.0, 0.0, 0.0, 0.0, 0.0, 0.0, 0.0, 0.0, 0.0, 0.0, 0.0, 0.0, 0.0, 0.0, 0.0, 0.0, 0.0, 0.0, 0.0, 0.0, 0.0, 0.0, 0.0, 0.0, 0.0, 0.0, 0.0, 0.0)",-0.07204301289531748
40,2019/07/11/08:55:35.266993,40,1562828133,902627263,odom,base_link,-0.16073864554199999,0.101348229964,0.18652912670400001,-0.054159093142300004,0.016005035413600002,-0.07742017832050001,0.995397783532,"(4.206567183473453e-08, -9.864915107016259e-09, -1.5576173240106073e-08, 4.2347303441658823e-10, -1.2866716581072524e-09, 6.799691365522165e-11, -9.864914218837839e-09, 1.8369027188214204e-08, 4.075432880057406e-09, -1.3709685608986888e-09, 4.003317399803308e-10, -2.010440702804317e-09, -1.5576175016462912e-08, 4.075434656414245e-09, 1.569613594654129e-08, 3.019432481821127e-10, 1.7788869266510687e-09, -2.1847504361183212e-10, 4.234733119723444e-10, -1.370966673519547e-09, 3.019426653150248e-10, 1.36059141730982e-09, 9.250901433777159e-11, 1.850750941390089e-10, -1.2866704368619253e-09, 4.0033129589112093e-10, 1.778884595182717e-09, 9.250900045998378e-11, 5.067727348873063e-10, -7.986339367604955e-11, 6.799742713337054e-11, -2.010443367339576e-09, -2.1847521014528581e-10, 1.8507546883927972e-10, -7.986349082056421e-11, 7.863503737048916e-10)",0.0,0.0,0.0,0.0,0.0,0.0,"(0.0, 0.0, 0.0, 0.0, 0.0, 0.0, 0.0, 0.0, 0.0, 0.0, 0.0, 0.0, 0.0, 0.0, 0.0, 0.0, 0.0, 0.0, 0.0, 0.0, 0.0, 0.0, 0.0, 0.0, 0.0, 0.0, 0.0, 0.0, 0.0, 0.0, 0.0, 0.0, 0.0, 0.0, 0.0, 0.0)",-0.15654293656876125
41,2019/07/11/08:55:36.707985,41,1562828135,169381263,odom,base_link,-0.55265945242,0.23800616298,0.36496749422499997,-0.0457313290218,0.020409068059900004,-0.135156948133,0.9895578380560001,"(4.019870630145306e-06, -8.045896606745373e-07, -1.5244552287185797e-06, 2.5040096218731378e-08, -1.0533303651527604e-07, -1.0134620920254633e-09, -8.04589774361375e-07, 1.9210929167456925e-06, 3.229850165098469e-07, -2.0655284060921986e-07, 2.8447683320109718e-08, -2.5140860770989093e-07, -1.524455115031742e-06, 3.229849312447186e-07, 1.728688744151441e-06, 6.271307029237505e-08, 2.055891883401273e-07, -1.7470870972147168e-08, 2.5040046480739875e-08, -2.0655255639212555e-07, 6.271309871408448e-08, 1.8254264944062015e-07, 1.7635649385283614e-08, 3.4472023457965406e-08, -1.053330080935666e-07, 2.844761404219298e-08, 2.055893872920933e-07, 1.763565649071097e-08, 6.570911637027166e-08, -8.750407509694469e-09, -1.0134362238289896e-09, -2.5140855086647207e-07, -1.7470876301217686e-08, 3.4472083854097946e-08, -8.750412838764987e-09, 9.973761905257561e-08)",0.0,0.0,0.0,0.0,0.0,0.0,"(0.0, 0.0, 0.0, 0.0, 0.0, 0.0, 0.0, 0.0, 0.0, 0.0, 0.0, 0.0, 0.0, 0.0, 0.0, 0.0, 0.0, 0.0, 0.0, 0.0, 0.0, 0.0, 0.0, 0.0, 0.0, 0.0, 0.0, 0.0, 0.0, 0.0, 0.0, 0.0, 0.0, 0.0, 0.0, 0.0)",-0.2728361718897442
42,2019/07/11/08:55:38.176392,42,1562828136,636155263,odom,base_link,-0.627692419854,0.237670562714,0.410965369425,-0.0455507991514,0.021922136726599997,-0.137066322676,0.9892711295730001,"(7.522653049818473e-06, -6.937993930478115e-07, -2.7220132778893458e-06, 9.866737116226432e-08, -1.5766892147439648e-07, -9.216510221676799e-09, -6.937993930478115e-07, 3.1256142847269075e-06, 4.131177533395203e-08, -2.0224675267854764e-07, -2.189764991555876e-08, -4.023487178983487e-07, -2.7220137326366967e-06, 4.131176822852467e-08, 3.1343643058789894e-06, 2.3531230297635375e-08, 3.3891399198182626e-07, -4.238018380675612e-09, 9.866728589713603e-08, -2.022460705575213e-07, 2.353124273213325e-08, 1.844923076532723e-07, 3.695799577485559e-08, 4.1363556135820545e-08, -1.5766906358294364e-07, -2.189755576864627e-08, 3.3891387829498854e-07, 3.695799577485559e-08, 1.0809573325332167e-07, -5.90118176546639e-09, -9.216549301527266e-09, -4.023487463200581e-07, -4.2380055020885266e-09, 4.1363648506376194e-08, -5.901167554611675e-09, 1.62179176754762e-07)",0.0,0.0,0.0,0.0,0.0,0.0,"(0.0, 0.0, 0.0, 0.0, 0.0, 0.0, 0.0, 0.0, 0.0, 0.0, 0.0, 0.0, 0.0, 0.0, 0.0, 0.0, 0.0, 0.0, 0.0, 0.0, 0.0, 0.0, 0.0, 0.0, 0.0, 0.0, 0.0, 0.0, 0.0, 0.0, 0.0, 0.0, 0.0, 0.0, 0.0, 0.0)",-0.2768417873113948
43,2019/07/11/08:55:39.624786,43,1562828138,102895263,odom,base_link,-0.6262862944300001,0.256868358263,0.43372279883299997,-0.046773004481,0.022247270133500002,-0.14096774319,0.988658404305,"(8.939483450376429e-06, -8.347651601070538e-07, -3.148469204461435e-06, 5.7341157599921644e-08, -1.606802157994025e-07, -5.7720150437035045e-08, -8.347647053597029e-07, 3.3996961974480655e-06, 1.8502238674500404e-07, -1.9787407268267998e-07, 3.9358830861147e-08, -3.4527121783867187e-07, -3.148468294966733e-06, 1.8502258569697005e-07, 3.605672873163712e-06, -3.328779030198348e-08, 3.3822988143583643e-07, -1.3459158232365098e-08, 5.7341274839473044e-08, -1.978747405928516e-07, -3.3287800960124514e-08, 1.8709819471496303e-07, -7.85989939799947e-09, 3.935148029654556e-08, -1.6067986052803462e-07, 3.9358777570441816e-08, 3.3822982459241757e-07, -7.859893180750532e-09, 1.015790758174262e-07, -1.622807666024073e-08, -5.772020017502655e-08, -3.4527110415183415e-07, -1.3459139580618285e-08, 3.935143055855406e-08, -1.622807666024073e-08, 1.2868258636444807e-07)",0.0,0.0,0.0,0.0,0.0,0.0,"(0.0, 0.0, 0.0, 0.0, 0.0, 0.0, 0.0, 0.0, 0.0, 0.0, 0.0, 0.0, 0.0, 0.0, 0.0, 0.0, 0.0, 0.0, 0.0, 0.0, 0.0, 0.0, 0.0, 0.0, 0.0, 0.0, 0.0, 0.0, 0.0, 0.0, 0.0, 0.0, 0.0, 0.0, 0.0, 0.0)",-0.28478628389995647
44,2019/07/11/08:55:41.126911,44,1562828139,502902263,odom,base_link,-0.7093064742659999,0.227916009747,0.47287412762500003,-0.0361321182443,0.019829901834099998,-0.13798049291699999,0.9895769947799998,"(2.1146790459170006e-05, -2.1698797354474664e-06, -7.585475486848736e-06, 1.55931147105548e-07, -3.812438080785796e-07, -1.09159941530379e-07, -2.1698783712054137e-06, 8.19311389932409e-06, 5.513608698493044e-07, -4.860176545662398e-07, 9.891502372738614e-08, -8.418725201408961e-07, -7.585470939375227e-06, 5.513609835361422e-07, 8.716591764823534e-06, -9.98758622472451e-08, 8.228809633692435e-07, -4.528071073650608e-08, 1.5593130342494987e-07, -4.860185072175227e-07, -9.987587645809981e-08, 4.521955929703836e-07, -1.7266723162379094e-08, 9.571948567099753e-08, -3.81243239644391e-07, 9.891491714597578e-08, 8.228811338995001e-07, -1.7266712504238058e-08, 2.461817132370925e-07, -3.964277794921145e-08, -1.0916019732576387e-07, -8.418724632974772e-07, -4.528058639152732e-08, 9.571940040586924e-08, -3.964277794921145e-08, 3.1001093248050893e-07)",0.0,0.0,0.0,0.0,0.0,0.0,"(0.0, 0.0, 0.0, 0.0, 0.0, 0.0, 0.0, 0.0, 0.0, 0.0, 0.0, 0.0, 0.0, 0.0, 0.0, 0.0, 0.0, 0.0, 0.0, 0.0, 0.0, 0.0, 0.0, 0.0, 0.0, 0.0, 0.0, 0.0, 0.0, 0.0, 0.0, 0.0, 0.0, 0.0, 0.0, 0.0)",-0.27821044848847937
45,2019/07/11/08:55:42.601611,45,1562828141,36409263,odom,base_link,-0.109638968034,0.414162710005,0.31548855095899997,-0.0346016804089,0.0108693486112,-0.22036882308800002,0.974742100653,"(3.546872903825715e-06, -9.884652172331698e-07, -1.0238092045256053e-06, -2.476490656988517e-08, -4.354794569394471e-08, -2.956058153813501e-08, -9.884653309200075e-07, 1.118689851864474e-06, 3.2523035997655825e-07, -2.5897675115515995e-08, 3.60406176014294e-08, -4.70117242912238e-08, -1.0238094318992808e-06, 3.252303883982677e-07, 8.912620614864863e-07, -2.2157360390906433e-09, 6.44458211240817e-08, -3.197746512029198e-09, -2.4764929662524082e-08, -2.5897707089939104e-08, -2.215736927269063e-09, 3.1776846043385376e-08, -1.2469124399672182e-08, 5.9901301696640985e-09, -4.354830096531259e-08, 3.604074549912184e-08, 6.444590638921e-08, -1.2469122623315343e-08, 1.8997765138806244e-08, -5.297669414261463e-09, -2.9560503378434078e-08, -4.701173139665116e-08, -3.197767384222061e-09, 5.9901301696640985e-09, -5.297672522885932e-09, 1.502577973155894e-08)",0.0,0.0,0.0,0.0,0.0,0.0,"(0.0, 0.0, 0.0, 0.0, 0.0, 0.0, 0.0, 0.0, 0.0, 0.0, 0.0, 0.0, 0.0, 0.0, 0.0, 0.0, 0.0, 0.0, 0.0, 0.0, 0.0, 0.0, 0.0, 0.0, 0.0, 0.0, 0.0, 0.0, 0.0, 0.0, 0.0, 0.0, 0.0, 0.0, 0.0, 0.0)",-0.4448974611458346
46,2019/07/11/08:55:44.012642,46,1562828142,503053263,odom,base_link,-0.396598858318,0.35130292003200003,0.338601037068,-0.04664758749009999,-0.00281632098484,-0.23075890252099998,0.971888059308,"(7.3761561907303985e-06, -1.1825657111330656e-06, -2.1851228666491807e-06, -4.2304378666813136e-08, -6.854125444988313e-08, -5.5861306691440404e-08, -1.182565938506741e-06, 3.260849553043954e-06, 4.5282001792656956e-07, -2.3699055873294128e-07, 8.912889626344622e-08, -3.553847705006774e-07, -2.1851228666491807e-06, 4.528200747699884e-07, 3.396515921849641e-06, 1.8526773004623465e-08, 3.1739577366352023e-07, -4.111203111278883e-08, -4.230433248153531e-08, -2.36990672419779e-07, 1.8526765899196107e-08, 2.2522362996824086e-07, -8.548795449314639e-09, 5.05681079232545e-08, -6.854136813672085e-08, 8.912877547118114e-08, 3.173962284108711e-07, -8.54879189660096e-09, 1.1692474544133802e-07, -3.005612825290882e-08, -5.586128537515833e-08, -3.553848557658057e-07, -4.1112066639925615e-08, 5.0568125686822896e-08, -3.0056138911049857e-08, 1.3653786368195142e-07)",0.0,0.0,0.0,0.0,0.0,0.0,"(0.0, 0.0, 0.0, 0.0, 0.0, 0.0, 0.0, 0.0, 0.0, 0.0, 0.0, 0.0, 0.0, 0.0, 0.0, 0.0, 0.0, 0.0, 0.0, 0.0, 0.0, 0.0, 0.0, 0.0, 0.0, 0.0, 0.0, 0.0, 0.0, 0.0, 0.0, 0.0, 0.0, 0.0, 0.0, 0.0)",-0.4650241853758368
